station_id,latitude,longitude
KIRS,41.8154,-85.4376
CYMT,49.779,-74.527
CYNA,50.19,-61.789
KCCA,35.5946,-92.4455
KIKW,43.6643,-84.2613
KI68,39.4664,-84.2532
KMTV,36.6272,-80.0134
KI40,40.3101,-81.8544
KI23,39.5697,-83.4239
KANQ,41.6405,-85.0852
KSDC,43.2355,-77.1201
KHZL,40.9845,-75.9901
KOKV,39.1406,-78.1391
KCLK,35.5381,-98.9336
KINJ,32.0844,-97.0959
KJYO,39.0826,-77.5606
KOSC,44.453,-83.396
KONZ,42.0991,-83.1611
KONM,34.0263,-106.9037
KONA,44.076,-91.707
KRNP,42.9937,-84.1347
KSAZ,46.3785,-94.8016
KOLG,46.3153,-91.8183
KOIC,42.5642,-75.5269
KSGS,44.8601,-93.032
KO32,36.6691,-119.4525
KNRN,39.8497,-99.8915
KN79,40.8371,-76.546
KMZH,46.4163,-92.8049
KMYJ,39.1561,-91.8129
KMWM,43.91,-95.1073
KMRT,40.2237,-83.3474
KMQJ,39.8402,-85.894
KMOX,45.5677,-95.9659
KMOP,43.6229,-84.743
KSKA,47.612,-117.679
K0V4,37.1399,-79.0171
K20U,46.9251,-103.9852
K21D,45.0002,-92.8549
K4M3,34.804,-91.707
CYKL,54.803,-66.804
K7W4,37.9667,-77.7453
KACQ,44.0702,-93.5535
PAHY,55.202,-132.825
KBBB,45.331,-95.6469
KBCB,37.208,-80.4127
KCFJ,39.9767,-86.9148
KCKC,47.8366,-90.3864
KCQM,47.8199,-92.6817
KD39,45.7056,-94.9309
KDQH,31.4738,-82.8609
KDRM,46.009,-83.743
KDXX,44.9839,-96.1789
KEDC,30.3926,-97.5622
KFHM,34.0677,-118.2417
CZUM,53.562,-64.107
KY63,45.9891,-95.9946
KFRH,38.5034,-86.6442
KXSA,37.8606,-76.9016
KX60,29.3524,-82.4743
KFRR,38.9169,-78.2487
KFVX,37.363,-78.4372
KFYJ,37.5224,-76.7663
KW78,36.7087,-78.846
KIIY,33.7797,-82.8135
KL18,33.3551,-117.249
KVNW,40.8633,-84.613
KLJF,45.0949,-94.5084
KMBY,39.464,-92.4244
KMDS,44.0141,-97.0817
KVER,38.9496,-92.6842
KMGN,45.4241,-84.913
KVBW,38.366,-78.968
KUUV,38.2335,-91.1609
KMVE,44.9675,-95.7116
KOMH,38.2487,-78.0454
KULM,44.3227,-94.5024
KOVL,44.7792,-95.0304
KUKT,40.4368,-75.3802
KPCD,37.8749,-89.8582
KRID,39.7579,-84.8359
KTGI,37.8279,-75.9964
KTEW,42.5636,-84.4223
KSRR,33.4667,-105.5278
KROS,45.6962,-92.9543
KPTB,37.1803,-77.5081
KGPH,39.3248,-94.3082
KDYA,32.4641,-87.9504
KC62,41.4739,-85.2541
KGNT,35.1653,-107.9021
K1P1,43.7771,-71.756
KLDJ,40.6162,-74.2451
KBEA,28.3692,-97.7953
LMML,35.858,14.477
K8W2,38.6555,-78.7083
KDLO,35.7449,-119.2387
KBOW,27.9472,-81.7811
KY19,46.7648,-100.8941
KW13,38.077,-78.944
K5A9,32.9362,-84.6972
KTWT,37.5432,-87.9568
K6L4,37.8552,-81.915
K08D,48.3018,-102.4042
KBVU,35.9489,-114.8633
KMCX,40.7127,-86.7649
KIKT,28.5208,-88.2889
KPLD,40.4532,-84.9848
KCLS,46.6775,-122.9857
KMFV,37.646,-75.763
KCMR,35.3016,-112.197
KCPK,36.6631,-76.3264
KD50,48.9248,-103.2958
KW96,37.5027,-77.126
KHFY,39.628,-86.088
KW75,37.6024,-76.4477
KW31,36.9599,-78.1838
KF95,30.4881,-85.1148
KAID,40.1061,-85.6098
KEMV,36.6858,-77.485
KEZM,32.2136,-83.1321
KCCO,33.3107,-84.7713
KJAQ,38.3742,-120.7943
KJKJ,46.8404,-96.6545
KCPF,37.3869,-83.2593
KMCJ,29.7139,-95.3967
KHYX,43.4319,-83.8648
KHWY,38.5876,-77.715
KUYF,39.9312,-83.465
KHOB,32.6797,-103.2222
KHLX,36.7637,-80.8211
KW63,36.6008,-78.5559
KHCR,40.4774,-111.4329
KPOV,41.209,-81.2479
KRGK,44.5926,-92.4844
KHAF,37.5136,-122.4996
KJXI,32.7036,-94.9471
KGYL,44.7588,-94.0905
KRMY,42.2524,-84.9526
KGVE,38.1569,-78.1656
KGHW,45.6456,-95.3187
KSNK,32.6917,-100.9505
KY70,42.9397,-85.0653
KY49,47.1599,-94.6433
KY31,44.2434,-84.18
KX59,27.9624,-80.561
KW81,37.1813,-78.0977
KVVV,45.2993,-96.4256
KUTA,34.6766,-90.344
KUMP,39.936,-86.0478
KTWM,47.0192,-91.7447
KTTF,41.9371,-83.4332
CYPD,45.657,-61.374
KTOB,44.0202,-92.8295
CYQA,44.971,-79.303
KTMA,31.4229,-83.4859
CYPX,60.045,-77.281
KTKX,36.2226,-90.0367
KSYM,38.2199,-83.5835
KSVE,40.376,-120.5742
KSUZ,34.5862,-92.4802
KSTF,33.4326,-88.8506
KSPF,44.4811,-103.7879
K10G,40.5357,-81.9531
KSOW,34.2686,-110.0019
KSNC,41.383,-72.506
KSIK,36.9027,-89.5577
KSHD,38.2601,-78.9013
KSFQ,36.6825,-76.6013
KS32,47.424,-98.11
KS25,47.7954,-103.2567
KRVL,40.6768,-77.6251
KRSN,32.5159,-92.5899
KRRT,48.9318,-95.3405
KROX,48.856,-95.6949
KRCM,38.7855,-93.8058
KRCE,35.4971,-97.8255
KRAW,38.3484,-93.3436
KELO,47.8287,-91.8371
KPWC,46.7266,-94.3849
KPTD,44.6757,-74.9469
KPQN,43.9854,-96.2977
KPLR,33.5608,-86.2463
KPJC,40.8009,-80.1624
KHCO,48.7524,-96.9376
KJMR,45.8885,-93.269
KPEX,45.3725,-94.7388
KPAN,34.2551,-111.3379
KGAF,48.4081,-97.3694
KOWA,44.1191,-93.2569
KMGG,45.2354,-93.9896
PMDY,28.206,-177.382
KOKB,33.2195,-117.3496
CWND,69.632,-135.445
KETH,45.7828,-96.5461
CYQX,48.946,-54.576
KCRQ,33.1299,-117.2765
KHHR,33.9235,-118.3329
PASN,57.155,-170.223
KAQP,45.2249,-96.0041
KCDD,48.2601,-92.4748
KHAI,41.9591,-85.5933
EGUN,52.362,0.486
KOZR,31.2767,-85.7105
UACC,51.024,71.468
CYYL,56.863,-101.073
CYTZ,43.627,-79.397
CYCY,70.484,-68.515
KXVG,46.9942,-94.206
URMM,44.225,43.082
CZSJ,53.063,-93.344
CYHD,49.83,-92.74
CYNM,49.759,-77.793
PAVA,61.537,-165.604
USRR,61.342,73.422
PWAK,19.287,166.623
KRME,43.2242,-75.3956
LTFE,37.245,27.673
KIWI,43.9639,-69.7114
CYAY,51.39,-56.081
KCEC,41.7836,-124.238
PAMH,63.889,-152.292
CYQZ,53.027,-122.506
KQFV,-99.99,-99.99
KQFW,-99.99,-99.99
KQEP,-99.99,-99.99
CYCA,53.683,-57.042
KQFX,-99.99,-99.99
KQEJ,-99.99,-99.99
KQFB,-99.99,-99.99
PGUA,13.583,144.918
CYCK,42.307,-82.085
KQFU,-99.99,-99.99
PASY,52.711,174.107
ETIC,49.696,11.941
KQEW,-99.99,-99.99
KQFT,-99.99,-99.99
PAMK,63.484,-162.115
KQER,-99.99,-99.99
KSYN,44.474,-93.014
KQEI,-99.99,-99.99
KQEQ,-99.99,-99.99
KQEX,-99.99,-99.99
KQEN,-99.99,-99.99
PAEI,64.654,-147.094
EGQS,57.711,-3.324
KQEV,-99.99,-99.99
CYMH,52.304,-55.833
ETHF,51.114,9.286
CYTH,55.803,-97.846
CYEK,61.098,-94.072
UWWW,53.509,50.163
CWSA,43.933,-60.002
PAPB,56.576,-169.663
K9MN,44.0198,-92.4829
URKK,45.033,39.15
CYUX,68.772,-81.233
KBGR,44.7979,-68.8195
KHLR,31.1361,-97.7149
CYYT,47.627,-52.748
CYGV,50.286,-63.606
SBSP,-23.627,-46.655
CYEV,68.309,-133.5
PARC,68.113,-145.576
KMNM,45.126,-87.639
PADE,66.0696,-162.7613
RODE,26.718,127.783
ETIH,49.216,11.839
CYTE,64.23,-76.528
KLUF,33.538,-112.38
KIAG,43.1083,-78.9382
KPMH,38.8387,-82.8494
EGUL,52.409,0.561
KACV,40.9784,-124.1048
KTKC,44.25,-95.612
KSMO,34.021,-118.4471
CYBQ,58.707,-98.511
CYKF,43.462,-80.386
KFYV,36.0103,-94.1624
KOTH,43.4194,-124.2438
PAUN,63.885,-160.794
KFFA,36.0165,-75.6739
K4I3,40.3268,-82.5201
KFVE,47.2852,-68.3072
KANJ,46.48,-84.3581
PHBK,22.034,-159.783
PASD,55.318,-160.525
YPXM,-10.453,105.688
ROTM,26.271,127.754
CYGW,55.283,-77.76
KMRN,35.8192,-81.6097
KRKD,44.0611,-69.1014
VEIM,24.76,93.897
KMRF,30.3707,-104.0117
CYSJ,45.309,-65.886
PAFS,63.015,-154.367
CYTL,53.816,-89.892
VEAT,23.887,91.24
URWW,48.788,44.336
RJOR,35.53,134.165
LFRC,49.65,-1.47
LFRK,49.18,-0.456
LFOZ,47.897,2.163
LFPT,49.097,2.041
CWSF,49.251,-65.325
CWDC,59.56,-108.487
CWWS,52.819,-97.616
LFRH,47.761,-3.44
CWVQ,45.427,-73.929
LFRQ,47.975,-4.168
LRBS,44.511,26.078
LRCK,44.362,28.488
LROP,44.572,26.102
LRSB,45.789,24.091
CYZV,50.217,-66.26
LRTR,45.811,21.333
GCGM,28.032,-17.211
GCHI,27.819,-17.889
RCKH,22.577,120.35
LEAL,38.282,-0.558
LEBL,41.293,2.07
LEIB,38.876,1.384
LEMD,40.466,-3.555
LEMG,36.666,-4.482
LEPA,39.561,2.737
LEVC,39.489,-0.482
LEVX,42.239,-8.624
LEZL,37.418,-5.893
LBPG,42.289,24.714
LRAR,46.176,21.264
UBBZ,39.094,46.734
MSLP,13.438,-89.056
MHRO,16.316,-86.523
LRBM,47.658,23.47
MHLM,15.442,-87.934
MHTG,14.06,-87.216
LRCL,46.783,23.676
LROD,47.036,21.896
LRSM,47.703,22.886
LRTM,46.468,24.421
LRBC,46.522,26.91
LRCV,44.31,23.867
LRIA,47.164,27.627
LRSV,47.686,26.354
LRTC,45.065,28.716
LCLK,34.874,33.617
LRBV,45.706,25.524
LESA,40.96,-5.498
LEVD,41.706,-4.852
LEDA,41.734,0.538
LEJR,36.751,-6.056
LEVT,42.872,-2.733
LEZG,41.661,-1.004
LEAG,36.129,-5.441
LEBG,42.356,-3.622
LECH,40.211,0.067
LETL,40.404,-1.218
GCFV,28.445,-13.863
GCLA,28.633,-17.755
GCLP,27.923,-15.389
GCRR,28.952,-13.6
GCTS,28.047,-16.561
LCPH,34.715,32.479
GCXO,28.483,-16.342
UHBB,50.425,127.412
UHHH,48.527,135.184
UHPP,53.175,158.444
NFNA,-18.043,178.559
SBOI,3.861,-51.796
UHSS,46.887,142.719
UWUU,54.57,55.87
USNN,60.959,76.497
USSS,56.745,60.792
UUBW,55.553,38.15
UUOL,52.702,39.534
LJPZ,45.473,13.615
UUBC,54.552,36.37
UUOB,50.644,36.59
UUOK,51.751,36.297
UWPS,54.116,45.203
LEPP,42.777,-1.65
LEXJ,43.429,-3.831
LELC,37.775,-0.812
LELN,42.588,-5.651
GEML,35.278,-2.956
LEMI,37.803,-1.125
ULMM,68.781,32.749
KPRN,31.8467,-86.6141
ULOO,57.79,28.397
ULPB,61.885,34.155
CYYE,58.839,-122.59
NZQN,-45.021,168.739
UUOO,51.814,39.228
UEEE,62.093,129.774
USDA,71.216,72.05
LJCE,45.899,15.523
GOOG,15.4,-15.084
GOSP,16.677,-14.964
GOOD,14.65,-16.23
URMG,43.387,45.702
VOMM,12.994,80.18
URMN,43.514,43.646
URMO,43.204,44.608
URRP,47.494,39.925
FAUT,-31.546,28.673
FYGF,-19.599,18.116
FYWB,-22.98,14.645
RKSM,37.446,127.114
NSFA,-13.829,-171.993
NWWW,-22.015,166.213
LEAM,36.846,-2.357
FNUB,-14.925,13.575
LEAS,43.567,-6.044
LEBB,43.298,-2.906
LECO,43.307,-8.372
LEGE,41.911,2.763
LEGR,37.19,-3.789
LEMH,39.855,4.216
LERS,41.15,1.179
LESO,43.361,-1.787
VOSR,16.001,73.534
VOTV,8.484,76.919
VEMN,27.481,95.014
VAHS,22.3772,71.0374
VABB,19.1,72.859
VOCI,10.152,76.402
FQTT,-16.108,33.64
VOMD,9.835,78.093
VABO,22.333,73.225
VASU,21.114,72.742
VAUD,24.618,73.896
VAOZ,20.119,73.914
VOBL,13.205,77.704
VERP,21.182,81.738
VOHY,17.453,78.468
VAAU,19.863,75.398
VEBS,20.244,85.818
VEKI,26.776,83.889
VETJ,27.941,96.134
NZAA,-37.008,174.792
NZWN,-41.331,174.806
NZCH,-43.489,172.528
LPFR,37.014,-7.966
LPMA,32.698,-16.774
LPPR,41.235,-8.684
LPPS,33.073,-16.35
LPPT,38.781,-9.136
UUDL,57.561,40.157
UUEE,55.973,37.415
MROC,9.991,-84.218
USPP,57.914,56.021
UWKS,56.09,47.347
UWSG,51.713,46.171
NZOH,-40.196,175.381
NZDN,-45.928,170.198
USCM,53.393,58.756
UNNT,55.013,82.651
UNOO,54.964,73.32
UNTT,56.381,85.207
USTR,57.19,65.324
USHH,61.029,69.086
USDD,66.591,66.611
RKSI,37.469,126.451
RKSS,37.558,126.791
RKPC,33.511,126.493
RKPK,35.179,128.938
RKTU,36.717,127.499
RKTN,35.894,128.659
RKJB,34.991,126.383
RKNY,38.061,128.669
LPAZ,36.971,-25.171
LPPD,37.741,-25.698
LPMR,39.831,-8.887
LPMT,38.704,-9.036
UMIO,54.44,30.297
NIUE,-19.079,-169.926
LPLA,38.762,-27.091
LPBJ,38.073,-7.931
UGKO,42.177,42.483
UGSB,41.61,41.6
UGTB,41.669,44.955
UGAM,42.527,43.135
UGMS,43.055,42.75
MPDA,8.391,-82.434
NGTA,1.381,173.147
SBRP,-21.134,-47.774
FIMP,-20.434,57.684
FIMR,-19.755,63.36
MDPP,19.759,-70.571
MDST,19.407,-70.614
MDPC,18.566,-68.356
MDJB,18.577,-69.984
MDSD,18.433,-69.667
MDLR,18.451,-68.921
OPFA,31.365,72.995
TNCC,12.189,-68.96
SAAP,-31.79,-60.483
KJSL,26.2367,-91.2567
OSDI,33.411,36.516
OSAP,36.183,37.218
K3J1,32.4969,-80.9947
YBHM,-20.357,148.949
YBMA,-20.678,139.488
FACT,-33.965,18.602
FAGG,-34.006,22.379
FAKN,-25.383,31.106
FALE,-29.602,31.13
YMAV,-38.029,144.478
YBWW,-27.558,151.793
YBRM,-17.948,122.235
YBLN,-33.688,115.402
YPCC,-12.189,96.834
YCFS,-30.317,153.119
YPKG,-30.785,121.453
YMLT,-41.544,147.213
YPLM,-22.241,114.097
YLHI,-31.538,159.077
YSNF,-29.039,167.941
YPPD,-20.372,118.632
YBSU,-26.603,153.091
YSDU,-32.221,148.575
YGEL,-28.805,114.699
YGLA,-23.87,151.221
YHID,-10.584,142.29
YPJT,-32.101,115.879
YSTW,-31.084,150.847
YPWR,-31.156,136.805
YFRT,-30.848,128.114
AGGH,-9.43,160.047
UTDK,37.988,69.805
UTDT,37.866,68.865
UAAA,43.35,77.027
VEPT,25.591,85.088
VGEG,22.249,91.814
UCFM,43.061,74.478
UCFO,40.61,72.791
UCFL,42.585,76.702
UASS,50.352,80.228
UASK,50.027,82.5
UAIT,43.311,68.55
UASP,52.202,77.078
UDYZ,40.147,44.396
UDSG,40.75,43.859
VTBD,13.913,100.607
VTBS,13.686,100.767
VTCC,18.771,98.963
VTSP,8.105,98.308
VTSS,6.933,100.393
VTBU,12.68,101.001
GECE,35.893,-5.306
WAAA,-5.062,119.554
WABB,-1.19,136.108
WIHH,-6.267,106.891
WIII,-6.125,106.659
WIDD,1.121,104.119
WIMM,3.636,98.874
WARR,-7.38,112.787
LEBA,37.842,-4.849
LEHC,42.082,-0.324
LEBT,39.58,-0.45
LELO,42.452,-2.331
LEBR,42.2,-1.43
LETU,-99.99,-99.99
LEVS,40.371,-3.785
LELL,41.521,2.105
LESB,39.599,2.703
LEGT,40.299,-3.723
LKLN,49.675,13.275
LEMO,37.175,-5.616
LERT,36.645,-6.349
LETO,40.489,-3.451
DTKA,36.98,8.877
DTTF,34.422,8.822
DTTG,33.733,9.918
DTTX,34.718,10.691
DTTZ,33.94,8.111
FAPE,-33.985,25.617
FAUP,-28.399,21.26
FAWB,-25.654,28.224
LKKB,50.123,14.538
LEAB,38.952,-1.863
VLVT,17.987,102.564
VYYY,16.906,96.137
OPKC,24.902,67.139
VDSV,10.582,103.637
VDSA,13.371,104.225
FMCZ,-12.805,45.281
VTUD,17.382,102.799
FMEE,-20.887,55.51
FMEP,-21.32,55.425
VTUI,17.195,104.119
VTUK,16.462,102.786
VTUL,17.445,101.725
VTUO,15.227,103.244
TLPL,13.743,-60.948
VTCH,19.302,97.972
VTCL,18.277,99.502
VTCN,18.807,100.787
VTCP,18.129,100.162
VTPH,12.633,99.951
VTPO,17.238,99.818
VTPP,16.792,100.274
VTPB,16.676,101.195
VTPM,16.703,98.542
VTBO,12.275,102.319
VTCT,19.961,99.881
VTUQ,14.95,102.313
MHPR,14.382,-87.621
VTUU,15.251,104.87
VTUV,16.117,103.772
VTUW,17.384,104.643
SBNT,-5.911,-35.248
WAJJ,-2.573,140.514
WAPP,-3.71,128.089
WAHS,-6.973,110.375
WILL,-5.242,105.179
WATT,-10.172,123.671
WAQQ,3.327,117.568
VIJP,26.824,75.812
VEBN,25.452,82.859
VTSB,9.133,99.152
VTSC,6.52,101.743
VTSE,10.711,99.362
VTSF,8.546,99.94
VTSM,9.548,100.062
VTSR,9.773,98.587
VTST,7.512,99.621
VTSG,8.099,98.986
VTSY,5.788,101.147
TFFJ,17.904,-62.844
WAMM,1.541,124.926
WIBB,0.461,101.445
WIDN,0.923,104.532
WIEE,-0.783,100.283
WIOO,-0.151,109.404
WIPP,-2.898,104.7
WAOO,-3.44,114.759
WALL,-1.268,116.894
WADL,-8.757,116.277
WITT,5.524,95.42
WAHI,-7.9041,110.0575
VLLB,19.897,102.161
VLLN,20.963,101.403
VLPS,15.132,105.781
VLSK,16.557,104.76
ZBAD,39.501,116.412
ZBTJ,39.124,117.346
ZBYN,37.747,112.628
ZGGG,23.392,113.307
ZSHC,30.229,120.434
ZSPD,31.146,121.8
ZSSS,31.209,121.337
ZWWW,43.907,87.474
ZYTL,38.961,121.556
ZYTX,41.639,123.485
VVCI,20.823,106.727
VVCR,11.998,109.219
VVCT,10.085,105.712
VVDN,16.044,108.199
VVNB,21.218,105.805
VVPB,16.399,107.699
VVPQ,10.169,103.995
VVTS,10.817,106.667
VVVD,21.118,107.414
UTAV,39.083,63.613
ZGKL,25.22,110.04
ZGNN,22.609,108.173
ZGOW,23.55,116.505
ZGSZ,22.639,113.803
ZLXY,34.449,108.752
ZPPP,25.107,102.934
ZSFZ,25.936,119.666
ZSNB,29.827,121.462
ZSQD,36.362,120.087
ZUGY,26.538,106.801
ZUTF,30.304,104.436
ZUUU,30.576,103.95
ZBSJ,38.281,114.697
ZWSH,39.542,76.019
SYCJ,6.499,-58.254
ZBHH,40.854,111.827
ZGHA,28.18,113.219
ZHCC,34.52,113.834
ZHHH,30.783,114.205
ZJHK,19.934,110.445
ZJSY,18.303,109.412
ZLLL,36.513,103.623
ZSNJ,31.739,118.863
ZSOF,31.99,116.965
ZUCK,29.718,106.639
ZYCC,43.993,125.682
ZYHB,45.628,126.259
ZHEC,30.3424,115.0389
RJTF,35.672,139.528
RJTI,35.637,139.839
RJTT,35.553,139.781
ROAH,26.196,127.646
BKPR,42.576,21.03
ROMD,25.847,131.264
ROMY,24.782,125.295
RORK,25.944,131.326
RORS,24.827,125.145
RORY,27.044,128.4
ROYN,24.467,122.978
RORT,24.653,124.674
RJOC,35.414,132.89
RJOH,35.493,133.239
LFBU,45.728,0.22
RJOS,34.132,134.609
RJOW,34.676,131.79
RJSA,40.733,140.689
RJSC,38.412,140.371
RJSF,37.227,140.428
RJSI,39.429,141.135
RJSK,39.616,140.219
RJSM,40.705,141.372
RJSN,37.956,139.121
RJSR,40.192,140.372
RJSS,38.14,140.917
RJSY,38.812,139.787
RJFE,32.666,128.833
RJFG,30.605,130.992
SBCY,-15.653,-56.116
SGES,-25.461,-54.849
SGAS,-25.248,-57.519
RJFK,31.803,130.719
RJFM,31.877,131.449
RJFO,33.479,131.737
SURV,-30.97,-55.474
RJFS,33.15,130.302
RJFU,32.917,129.914
RJKA,28.431,129.713
SBBR,-15.867,-47.933
RJKB,27.4322,128.7058
RJKI,28.321,129.928
RJNK,36.394,136.407
RJNS,34.796,138.189
RJNT,36.641,137.187
RJNW,37.293,136.962
RJOA,34.436,132.919
RJOB,34.757,133.855
RJAF,36.167,137.923
RJAH,36.182,140.415
RJBB,34.434,135.233
RJBD,33.662,135.364
RJBE,34.633,135.224
RJCB,42.733,143.217
RJCC,42.774,141.693
RJCH,41.77,140.822
RJCK,43.041,144.193
RJCM,43.881,144.164
RJCN,43.578,144.96
RJCO,43.117,141.381
RJCW,45.404,141.802
RJDB,33.749,129.785
RJDC,33.93,131.279
RJDT,34.288,129.325
RJEB,44.304,143.404
RJEC,43.671,142.447
LQBK,44.937,17.299
UUYY,61.647,50.845
TTCP,11.149,-60.836
TTPP,10.593,-61.348
SBBE,-1.379,-48.476
SBCF,-19.635,-43.966
UHMA,64.733,177.739
SGEN,-27.221,-55.834
SCEL,-33.393,-70.786
SBSJ,-23.229,-45.861
SBEG,-3.039,-60.05
UHWW,43.399,132.146
UMGG,52.525,31.015
SBBV,2.846,-60.69
SBMO,-9.511,-35.792
SBFZ,-3.776,-38.533
ORNI,31.99,44.405
MGGT,14.585,-90.526
SBPV,-8.708,-63.901
SVMI,10.603,-66.991
VOBZ,16.53,80.797
LFBA,44.176,0.593
LFBX,45.196,0.815
LFMI,43.516,4.935
LFRZ,47.312,-2.163
LKKV,50.202,12.91
LKMT,49.696,18.111
LKPR,50.101,14.26
LKTB,49.151,16.694
LFLY,45.726,4.938
LFMK,43.214,2.31
LFMU,43.322,3.353
LFOB,49.454,2.113
LFOK,48.777,4.165
LFPB,48.967,2.428
LFSB,47.614,7.51
HUEN,0.036,32.437
VEJS,22.813,86.169
VEGT,26.107,91.587
VELR,27.296,94.098
LFJL,48.982,6.251
LFKF,41.501,9.098
LFKJ,41.924,8.803
LFLS,45.363,5.329
LFSL,45.04,1.486
VOBM,15.861,74.617
LFBH,46.178,-1.193
LFLL,45.726,5.078
LFMN,43.658,7.216
LFPG,49.015,2.534
LFPO,48.717,2.384
LFQQ,50.562,3.089
LFOE,49.025,1.222
LFRL,48.279,-4.439
VAID,22.722,75.801
VIGG,32.165,76.263
LFPV,48.77,2.205
VERC,23.314,85.322
VEGY,24.744,84.951
VAAH,23.077,72.635
VANP,21.089,79.055
VEPY,27.228,88.587
VIBR,31.876,77.154
FQMA,-25.921,32.573
FQLC,-13.271,35.265
VOGA,15.7426,73.8631
VOTK,8.722,78.028
LFAC,50.962,1.955
LFAT,50.515,1.623
LFJR,47.562,-0.317
SBSG,-5.768,-35.376
LFPN,48.752,2.114
GMAG,29.031,-10.051
ORER,36.232,43.951
GMFM,33.875,-5.52
GMML,27.141,-13.23
LFCK,43.556,2.289
LFLP,45.93,6.106
LFLW,44.899,2.421
LFLX,46.87,1.741
LFOH,49.533,0.091
LFOP,49.383,1.182
GMFK,31.946,-4.399
GMMI,31.406,-9.687
GMMW,34.993,-3.025
GMMZ,30.939,-6.909
GMTN,35.594,-5.32
LFBI,46.584,0.309
LFBL,45.863,1.179
LFBO,43.621,1.379
LFBP,43.385,-0.416
LFKB,42.553,9.484
LFLB,45.637,5.883
LFML,43.438,5.216
GMAD,30.325,-9.413
GMFF,33.929,-4.976
GMFO,34.787,-1.924
GMME,34.051,-6.752
GMMN,33.367,-7.59
GMMX,31.607,-8.036
EPBY,53.0962,17.9949
EPKT,50.478,19.085
EPLB,51.239,22.714
EPMO,52.452,20.642
EPRA,51.39,21.211
EPSY,53.482,20.938
EPWR,51.1032,16.8998
LFSI,48.631,4.904
LFSO,48.583,5.955
LFSX,47.783,6.364
LFYR,47.32,1.688
LFLN,46.412,4.025
LFPM,48.611,2.68
SBSL,-2.585,-44.234
SCCI,-53.003,-70.855
EPKK,50.078,19.797
EPLL,51.724,19.401
EPPO,52.417,16.835
EPRZ,50.112,22.025
LFBC,44.533,-1.125
LFBG,45.665,-0.316
LFBM,43.912,-0.507
LFBE,44.826,0.516
LFMD,43.544,6.953
LFMH,45.533,4.293
LFOT,47.444,0.728
LFST,48.549,7.64
LFTH,43.094,6.146
LFTW,43.757,4.416
KLMS,33.15,-89.063
WSAP,1.36,103.909
SEMT,-0.946,-80.679
SESA,-2.205,-80.989
SERO,-3.435,-79.978
SECU,-2.889,-78.984
VRMH,6.744,73.171
VRMM,4.192,73.529
VRMG,-0.693,73.156
VGHS,23.846,90.4
HAAB,8.978,38.799
VHHH,22.309,113.922
SLLP,-16.511,-68.182
SLVR,-17.645,-63.135
SLCB,-17.421,-66.179
SBFN,-3.855,-32.423
SLTJ,-21.556,-64.701
SLAL,-19.247,-65.15
TBPB,13.075,-59.492
NTAA,-17.554,-149.607
LFVP,46.764,-56.169
GMFB,32.514,-1.978
UBBB,40.469,50.061
KOXD,39.5047,-84.7838
K3L4,29.8,-92.804
ORBI,33.263,44.235
KHHV,26.9392,-94.6886
MHLC,15.737,-86.864
ZBAA,40.082,116.603
UAAH,46.893,75.005
UACP,54.775,69.183
UADD,42.854,71.304
UAKD,47.711,67.739
UAKK,49.672,73.333
UAOO,44.707,65.593
UAUU,53.215,63.553
OEDF,26.45,49.817
YBAS,-23.795,133.889
YBRK,-23.375,150.477
YSRI,-33.601,150.777
EPGD,54.379,18.466
EPSC,53.585,14.902
EPWA,52.163,20.961
ZMUB,47.843,106.766
ZSAM,24.546,118.131
LFBD,44.831,-0.691
LFBZ,43.469,-1.534
LFKC,42.531,8.793
LFLC,45.787,3.169
LFRM,47.949,0.202
LDZA,45.729,16.054
LJLJ,46.218,14.477
LJMB,46.48,15.682
LYBE,44.824,20.291
LYNI,43.338,21.863
LYTV,42.405,18.723
LZIB,48.17,17.207
LFMT,43.577,3.963
LFRB,48.444,-4.412
RJOY,34.597,135.601
RJTO,34.782,139.36
RJFT,32.837,130.855
RJFR,33.846,131.035
NCRG,-21.203,-159.806
DAAG,36.691,3.215
DAAT,22.824,5.452
DAON,35.013,-1.457
DAOO,35.623,-0.624
GMMB,33.655,-7.221
YPAD,-34.952,138.52
SBCG,-20.469,-54.672
YBBN,-27.391,153.13
YPDN,-12.424,130.893
YMML,-37.666,144.832
YPPH,-31.927,115.976
YSSY,-33.946,151.173
YAMB,-27.63,152.711
YPEA,-31.667,116.019
YPTN,-14.523,132.383
YBTL,-19.248,146.766
YWLM,-32.794,151.836
UOOO,69.308,87.322
SELT,-0.921,-78.619
SBPJ,-10.291,-48.357
URKA,44.995,37.341
MHCA,14.875,-85.775
SCSE,-29.918,-71.201
SCQP,-38.925,-72.648
SCIE,-36.773,-73.063
SCIC,-34.966,-71.217
SCSN,-33.656,-71.615
SCIP,-27.161,-109.427
SCCH,-36.583,-72.031
URMT,45.108,42.1
SCCF,-22.496,-68.905
SCVM,-32.947,-71.479
SCPD,-33.1173,-70.6838
SCAT,-27.262,-70.774
URWA,46.286,47.995
URWI,46.374,44.331
SCAR,-18.351,-70.336
USCC,55.306,61.503
SCTE,-41.439,-73.094
SCDA,-20.535,-70.181
SCTN,-42.933,-72.699
SCFA,-23.45,-70.441
SCJO,-40.605,-73.061
SCPQ,-42.347,-73.718
SCFT,-43.189,-71.853
RPVD,9.334,123.297
LBIA,42.456,26.352
LBPL,43.453,24.504
LBSF,42.694,23.414
LBWN,43.232,27.825
LBBG,42.569,27.514
LBPD,42.064,24.86
LBGO,43.151,25.713
UUWW,55.592,37.261
RPVM,10.308,123.978
UWGG,56.225,43.786
UWKD,55.61,49.275
UWKE,55.566,52.1
RPLI,18.178,120.532
UWLW,54.402,48.8
UWOO,51.795,55.457
UARR,51.151,51.541
UATE,43.86,51.092
FAOR,-26.139,28.246
UATG,47.122,51.829
UHMD,64.378,-173.243
UIAA,52.026,113.31
UIUU,51.808,107.443
ULAA,64.599,40.712
UMMS,53.883,28.031
UNAA,53.74,91.385
UTAK,40.054,53.007
UTAT,41.761,59.827
UTDD,38.543,68.825
SPQU,-16.341,-71.583
UTDL,40.215,69.695
MYSM,24.064,-74.529
SBBG,-31.391,-54.112
SPME,-3.551,-80.385
SPST,-6.509,-76.373
SEQM,-0.124,-78.354
MYNN,25.04,-77.467
SKSP,12.587,-81.704
NFNM,-16.691,-179.877
SUMO,-32.34,-54.224
SPQT,-3.786,-73.306
SPSO,-13.744,-76.221
SPTN,-18.049,-70.277
SPZO,-13.536,-71.939
SUPU,-32.362,-58.067
OEAB,18.24,42.657
OEAH,25.285,49.485
OEAO,26.483,38.117
LEST,42.888,-8.411
OEBA,20.296,41.634
WADD,-8.748,115.167
OEBH,19.984,42.621
YCIN,-17.574,123.831
OEDM,24.45,44.121
OEDR,26.265,50.152
OEGN,16.901,42.586
YPGV,-12.274,136.82
OEGS,26.303,43.774
OEGT,31.412,37.279
OEHL,27.438,41.686
YPKU,-15.781,128.71
OEJN,21.685,39.166
OEKJ,24.07,47.58
OEMA,24.553,39.705
OERK,24.945,46.702
OEKM,18.301,42.798
OEMN,-99.99,-99.99
OENG,17.611,44.419
SKMZ,5.03,-75.47
SKPV,13.358,-81.358
OEPA,28.335,46.125
SKRH,11.528,-72.918
OERF,29.626,43.491
OERR,30.907,41.138
UERP,66.4,112.03
OERS,-99.99,-99.99
OESH,17.467,47.121
OESK,29.785,40.1
OETB,28.366,36.619
UERR,62.538,114.056
OETF,21.483,40.544
OETR,31.693,38.731
OEWD,20.504,45.197
OEWJ,26.199,36.476
OEYN,24.144,38.063
SKBG,7.127,-73.185
UMKK,54.885,20.583
SKBO,4.706,-74.151
UNBB,53.362,83.54
SKCL,3.543,-76.382
UNEE,55.27,86.107
SKLT,-4.196,-69.943
UNKL,56.173,92.493
UNWW,53.811,86.878
SKPE,4.814,-75.735
SKRG,6.169,-75.426
URML,42.817,47.652
VQPR,27.403,89.425
GQPP,20.929,-17.031
VAJB,23.178,80.05
UWLL,54.274,48.236
UWOR,51.07,58.597
VILK,26.761,80.889
LKCV,49.94,15.382
LKNA,49.166,16.125
LKPD,50.016,15.74
LQMO,43.285,17.84
UBBF,39.595,47.196
LZPP,48.613,17.832
UBBN,39.189,45.458
LZZI,49.231,18.613
RJBT,35.513,134.787
HECA,30.133,31.405
FAVV,-26.566,27.961
LFCR,44.41,2.483
LFMO,44.144,4.861
OMRK,25.613,55.939
OMAD,24.428,54.458
OMAL,24.262,55.609
OMDW,24.897,55.161
OMAA,24.433,54.651
OMDB,25.254,55.366
OMFJ,25.112,56.324
OMSJ,25.329,55.517
VOTR,10.765,78.71
DTMB,35.758,10.755
DTNH,36.074,10.436
DTTA,36.851,10.227
DTTJ,33.875,10.775
DTTR,31.703,9.257
FQPB,-12.989,40.525
VOVZ,17.722,83.228
VEAY,26.7484,82.1624
VEKO,24.817,79.919
VOKN,11.917,75.547
VEJH,21.914,84.05
UZFN,40.983,71.573
UZNN,42.488,59.623
UZNU,41.584,60.642
FSIA,-4.674,55.522
UZSA,40.116,65.167
UZSB,39.775,64.483
UZSK,38.804,65.773
UZSS,39.7,66.974
UZST,37.287,67.318
UZFA,40.727,72.294
SCGZ,-54.932,-67.631
SBSN,-2.423,-54.789
UZFF,40.356,71.745
NTTB,-16.445,-151.752
VOML,12.961,74.89
UZTT,41.258,69.281
WSSS,1.368,103.982
VOHS,17.233,78.429
VEDG,23.623,87.243
VAKP,16.664,74.287
VABP,23.288,77.337
RCMQ,24.265,120.621
OJAI,31.723,35.993
RPMD,7.125,125.646
RPMR,6.058,125.096
RPVP,9.742,118.759
EIME,53.306,-6.442
MNMG,12.141,-86.177
RCSS,25.069,121.552
RCNN,22.95,120.206
RCFN,22.755,121.102
RCQC,23.569,119.628
OJAM,31.973,35.992
RPLB,14.794,120.271
RPMZ,6.92,122.063
RPVK,11.683,122.383
VMMC,22.141,113.596
RPLL,14.507,121.004
RPLC,15.186,120.56
DTTB,37.245,9.791
DTTD,32.312,10.386
DTTK,35.667,10.1
DTTN,36.483,8.8
OJAQ,29.612,35.018
TGPY,12.006,-61.797
RJOT,34.214,134.016
RJOM,33.83,132.698
RJOK,33.546,133.669
ROIG,24.395,124.245
GMTT,35.727,-5.917
DAOY,33.721,1.091
DATM,21.375,0.924
DAUE,30.571,2.86
DAUI,27.251,2.512
DAUK,33.068,6.089
DAUO,33.513,6.782
DAUT,29.237,0.276
DAUU,31.917,5.413
RJFF,33.584,130.452
SOCA,4.822,-52.365
UATT,50.248,57.203
KQEY,-99.99,-99.99
FGSL,3.756,8.71
DAAS,36.18,5.33
DABS,35.432,8.121
DAOB,35.345,1.476
DAOI,36.213,1.332
DAUA,27.839,-0.186
DAUB,34.793,5.738
DAUG,32.384,3.794
RJOO,34.784,135.439
DAAE,36.712,5.07
DAAJ,24.286,9.464
DAAV,36.795,5.877
DABB,36.822,7.809
DABC,36.278,6.629
DABT,35.752,6.309
DAUH,31.673,6.14
DAUZ,28.052,9.643
DAAP,26.724,8.622
DAAY,33.532,-0.248
DAOF,27.7,-8.167
DAOR,31.65,-2.261
RJGG,34.858,136.805
CYDB,61.37,-139.032
MPTO,9.056,-79.391
CYVL,67.021,-126.129
CYXC,49.614,-115.784
CYXE,52.172,-106.695
CYXS,53.884,-122.677
CYZP,53.254,-131.814
CBBC,52.181,-128.154
CYDL,58.426,-130.025
CYIN,51.265,-121.681
CYLW,49.953,-119.375
CYWL,52.186,-122.066
CYYF,49.46,-119.606
CYZY,55.303,-123.135
SBSV,-12.911,-38.331
CYOD,54.41,-110.287
CYZU,54.142,-115.785
CYWH,48.423,-123.387
CYOJ,58.628,-117.174
CYQF,52.179,-113.903
CYQL,49.627,-112.792
CYQW,52.769,-108.251
CYYN,50.292,-107.691
CZVL,53.67,-113.863
CYAT,52.927,-82.432
CYER,56.019,-87.675
CYKP,51.659,-85.901
CYLH,52.196,-87.936
CYOO,43.921,-78.899
KSQL,37.5119,-122.2483
CYPO,54.988,-85.439
CYRQ,46.358,-72.68
CYSB,46.622,-80.799
CYYW,50.296,-88.912
CZMD,53.439,-91.766
CZMT,54.023,-132.12
CYQT,48.374,-89.33
CYTS,48.568,-81.378
CZPC,49.522,-114.005
CYRT,62.811,-92.1
CYWE,64.192,-114.078
CYZS,64.188,-83.351
CYAH,53.757,-73.676
CYBX,51.442,-57.188
ORSU,35.56,45.318
CYPE,56.228,-117.453
CYYJ,48.642,-123.433
UTAM,37.619,61.897
CXBK,50.201,-104.71
FASI,-26.248,28.398
CXAT,73.006,-85.033
CXBO,46.837,-71.197
CXCA,49.154,-88.344
CXCK,62.115,-136.192
CXDE,65.209,-123.434
CXDI,42.864,-80.545
CXDW,49.4,-98.319
CXEA,50.631,-93.221
CXEC,53.573,-113.517
CXEG,53.307,-113.606
CXET,44.234,-79.779
CXGH,50.631,-96.984
CXHA,42.033,-82.896
CXIB,46.663,-60.406
CXMD,49.188,-98.084
CXMI,44.602,-63.534
CXMM,56.649,-111.221
CXMY,44.984,-62.484
CXNM,46.818,-60.673
CXOX,55.146,-105.27
CXRH,49.57,-57.878
CXSH,46.564,-72.733
CXTP,48.557,-53.975
CXWN,49.889,-97.13
CWPO,49.191,-98.905
CWWZ,43.244,-79.218
CWWB,43.302,-79.791
CWDQ,47.415,-72.788
CWDV,49.033,-90.467
CTCK,45.251,-74.963
CWLS,43.983,-80.74
CWNC,43.951,-78.165
CWNZ,49.747,-84.164
SULS,-34.855,-55.094
CAHR,46.344,-63.17
CWNE,47.058,-63.997
CWNK,49.498,-98.03
CWNM,49.491,-117.305
CWNP,50.269,-117.817
CWNQ,46.226,-72.657
CWOC,48.012,-65.332
CWOD,48.842,-72.546
CWPD,47.562,-71.229
CWPE,45.058,-66.459
CWPF,48.432,-123.439
CWPR,49.468,-120.514
CWPZ,54.383,-125.959
CWBU,53.333,-104.005
TUPJ,18.445,-64.543
ORMM,30.549,47.662
CZFS,61.76,-121.23
CWEF,47.226,-60.141
CWEP,46.46,-61.988
CWER,46.997,-70.808
CWPK,47.922,-74.624
CWWE,43.989,-64.662
UBBQ,40.809,47.729
SBRB,-9.867,-67.897
SBFL,-27.671,-48.547
CWRA,46.659,-53.073
SBMA,-5.368,-49.137
SBKP,-23.007,-47.135
SBPL,-9.367,-40.565
SBMQ,0.051,-51.072
SBPA,-29.994,-51.171
MGMM,16.914,-89.866
MGHT,15.317,-91.503
MGPB,15.737,-88.589
SBRJ,-22.91,-43.163
GVAC,16.742,-22.949
CWDM,50.465,-59.64
CWBY,49.839,-64.293
ZMCK,47.651,106.822
MRLB,10.589,-85.552
SBGR,-23.432,-46.469
CWRN,45.347,-60.98
CWNH,47.806,-69.548
CWBV,44.825,-62.338
CWDO,49.688,-54.8
CWHO,55.448,-60.23
CWSS,45.21,-67.253
CXKI,48.15,-80
CXLB,44.36,-64.296
CXPC,45.344,-80.044
CXRB,74.716,-94.983
CXSE,73.766,-105.296
CXTD,45.608,-61.68
CXTO,43.667,-79.4
CXVN,43.183,-79.4
CXZV,50.217,-66.26
CZMJ,50.332,-105.538
CZTB,48.369,-89.327
CZZJ,53.583,-116.462
CZSP,46.45,-62.576
CERM,47.417,-68.325
CWAR,47.294,-53.993
CWBK,45.764,-62.681
CWDA,50.721,-56.113
CWXI,51.022,-57.096
CWZN,47.368,-55.795
CXNP,45.76,-64.241
CZCR,47.99,-66.334
CZDB,45.422,-63.466
CWTA,45.506,-73.579
CWTG,49.317,-67.381
CWTN,47.079,-70.781
CWTT,45.27,-72.17
CWTY,46.354,-72.516
CWUS,49.563,-119.649
CWVF,49.106,-123.303
CWVI,53.505,-112.098
CWVN,49.058,-107.586
CWVP,49.64,-109.514
CWVU,44.287,-66.342
CWWF,49.695,-103.801
CWWA,49.347,-123.193
CWWK,49.018,-122.784
CWXA,51.083,-115.066
CWVT,55.841,-108.421
CWZW,60.167,-132.733
CWEH,49.438,-108.989
CWKO,49.168,-105.979
CWOY,51.767,-104.2
CWEK,54.58,-130.698
CWEQ,52.115,-101.233
CWJD,53.187,-99.268
CWLP,50.94,-127.632
CWRO,54.161,-131.66
CWZG,51.194,-115.552
CWCT,52.074,-111.448
CWLB,54.769,-112.024
CWRM,52.431,-114.907
CWJI,49.729,-105.946
CWJR,49.04,-116.483
CWJV,50.223,-119.194
CWJW,52.926,-118.03
CWJX,50.876,-109.501
CWKG,44.432,-65.203
CWKX,58.429,-130.011
CWLC,54.296,-130.609
CWLE,50.951,-107.143
CWLM,48.413,-123.325
CWMJ,46.275,-75.992
CWMM,49.208,-122.69
CWMQ,49.903,-109.466
CWEL,49.209,-123.808
CWEW,45.809,-73.435
CWFF,52.817,-104.601
CWFJ,49.2,-113.278
CWGB,49.336,-124.149
CWGD,43.765,-81.712
CWGH,44.417,-75.847
CWGL,44.55,-79.218
CWGM,49.133,-113.806
CTNK,45.533,-78.266
CTRA,49.664,-93.733
CWKK,49.713,-88.332
CXBI,44.484,-79.546
CXZC,51.292,-80.618
CZEL,43.642,-80.412
CWAF,48.069,-69.556
CWAQ,49.05,-105.483
CWAV,51.777,-114.681
CWBA,46.71,-79.101
CWBO,50.55,-111.849
CWBS,46.189,-72.916
CWBT,50.271,-64.226
CWBZ,45.121,-74.289
CWCF,52.36,-97.022
CWCJ,48.588,-86.295
CWDJ,50.408,-104.58
CWDK,50.006,-113.631
CWDZ,51.445,-112.677
CXKT,45.067,-64.478
CWXL,49.734,-111.45
CWYJ,48.457,-123.305
CWYL,51.443,-116.345
CWYY,49.028,-119.441
CWZA,49.244,-121.759
CWZO,48.568,-123.265
CWZQ,46.547,-61.049
CXHM,43.286,-79.905
CXKA,49.405,-82.443
CXKE,45.005,-75.637
CWQH,45.369,-71.824
CWQK,48.298,-123.531
CWQO,48.416,-68.893
CWQP,43.84,-77.153
CWQR,50.221,-64.207
CWQV,48.26,-70.116
CWSK,49.783,-123.161
CWSR,53.368,-107.553
CWRJ,51.565,-107.924
CWRK,45.072,-77.879
CWRT,49.628,-114.482
CWRY,49.133,-112.051
CWRZ,48.419,-64.317
CWSD,46.441,-63.837
CWSG,49.109,-66.655
CWSL,50.703,-119.291
CWST,47.354,-70.03
CWGR,47.425,-61.775
CWIG,47.074,-70.533
CWGT,49.487,-124.435
CWGW,49.745,-114.884
CWGY,51.67,-110.206
CWHL,54.172,-130.361
CWHQ,46.691,-71.972
CWHT,60.773,-137.581
CWHV,46.205,-70.785
CWID,61.317,-117.605
CWII,50.695,-96.562
CWIJ,65.756,-111.246
CWIP,50.162,-66.434
CWIS,47.284,-70.637
CWIT,45.167,-73.678
CWIW,51.667,-105.4
CWIZ,45.294,-73.35
CWJB,46.781,-71.288
CWJC,61.132,-100.884
CWJH,56.333,-103.283
YBCG,-28.168,153.505
YBCS,-16.874,145.745
YMHB,-42.834,147.503
YSCB,-35.309,149.2
RCTP,25.078,121.233
CYDQ,55.741,-120.188
CYEG,53.308,-113.592
CYFB,63.75,-68.544
CYFC,45.873,-66.539
CYGL,53.625,-77.7
CYHZ,44.8781,-63.5136
CYMX,45.68,-74.038
CYOW,45.307,-75.66
CYPL,51.449,-90.218
CYQB,46.791,-71.396
CYQG,42.269,-82.963
CYQM,46.107,-64.682
CYQY,46.166,-60.049
CYRB,74.713,-94.982
CYUL,45.468,-73.742
CYUY,48.209,-78.83
CYVP,58.1,-68.415
CYVR,49.183,-123.168
CYWG,49.916,-97.249
CYWK,52.927,-66.874
CYXU,43.039,-81.162
CYXX,49.027,-122.377
CYXY,60.71,-135.059
CYYC,51.116,-114.011
CYYQ,58.745,-94.074
CYYR,53.32,-60.417
CYYZ,43.679,-79.629
CYZF,62.475,-114.448
CZBF,47.628,-65.746
RJAA,35.765,140.386
DTTL,36.85,11.083
RJAW,24.784,141.322
WBGG,1.484,110.34
WBKK,5.937,116.051
WBSB,4.944,114.928
WMKP,5.297,100.277
WBGB,3.12,113.025
WBGR,4.322,113.987
WBGS,2.264,111.983
WBGY,1.222,111.466
WBKL,5.301,115.25
WBKS,5.901,118.059
WBKT,6.922,116.837
WBKW,4.316,118.119
WMAU,2.387,103.876
WMBA,4.221,100.701
WMKA,6.19,100.398
WMKB,5.466,100.391
WMKC,6.167,102.293
WMKD,3.775,103.209
WMKE,4.537,103.427
WMKI,4.568,101.092
WMKL,6.33,99.729
WMKM,2.263,102.252
WMKN,5.383,103.103
WMKJ,1.641,103.67
WMSA,3.13,101.552
SEGU,-2.158,-79.884
WMKK,2.747,101.714
FABL,-29.093,26.302
FAPP,-23.845,29.459
VORY,17.11,81.818
CYMA,63.616,-135.88
CYMM,56.65,-111.221
CYMO,51.292,-80.607
CYND,45.52,-75.563
CYNE,53.958,-97.845
CYPA,53.217,-105.679
CYPH,58.47,-78.08
CYPQ,44.232,-78.36
CYPR,54.291,-130.451
CYPW,49.835,-124.499
CYPY,58.766,-111.117
CYQD,53.975,-101.089
CYQH,60.116,-128.832
CYQI,43.831,-66.088
CYQK,49.791,-94.361
CYQR,50.427,-104.67
CYQU,55.182,-118.882
CYQV,51.26,-102.461
CYRJ,48.523,-72.266
CYRL,51.067,-93.799
CYRV,50.958,-118.176
CYSC,45.44,-71.692
CYSF,59.252,-105.837
CYSM,60.026,-111.929
CYSN,43.192,-79.176
CYUB,69.434,-133.026
CYVC,55.15,-105.264
CWEU,79.989,-85.934
CWLY,50.224,-121.582
CYAM,46.484,-84.504
CYBC,49.135,-68.202
CYBK,64.306,-96.078
CYBL,49.951,-125.269
CYBU,53.333,-104.005
CYBW,51.108,-114.382
CYCB,69.106,-105.116
CYCD,49.052,-123.874
CYCO,67.817,-115.135
CYDF,49.212,-57.394
CYDN,51.1,-100.057
CYEN,49.207,-102.963
CYET,53.58,-116.455
CYFS,61.76,-121.23
CYGK,44.223,-76.599
CYGP,48.777,-64.478
CYGR,47.425,-61.775
CYHE,49.37,-121.493
CYHK,68.633,-95.851
CYHU,45.516,-73.415
CYHY,60.839,-115.781
CYIO,72.694,-77.957
CYIV,53.857,-94.655
CYKA,50.704,-120.444
CYKJ,57.256,-105.618
CYKY,51.517,-109.175
CYLD,47.818,-83.358
CYLL,53.312,-110.074
OYSY,15.966,48.788
SKUI,5.691,-76.644
CYVM,67.552,-64.026
CYVO,48.056,-77.779
CYVQ,65.278,-126.796
CYVT,55.842,-108.418
CYVV,44.745,-81.107
CYXH,50.018,-110.717
CYXJ,56.247,-120.737
CYXL,50.114,-91.905
CYXR,47.698,-79.852
CYXT,54.471,-128.577
CYYB,46.365,-79.423
CYYD,54.823,-127.185
CYYG,46.289,-63.128
CYYH,69.543,-93.568
CYYU,49.416,-82.47
CYYY,48.609,-68.208
CYZE,45.885,-82.57
CYZH,55.293,-114.773
CYZR,42.995,-82.307
CYZT,50.685,-127.369
FAJB,-26.15,28
MYCB,24.315,-75.452
MYAF,24.689,-77.796
CYBR,49.91,-99.945
SANL,-29.383,-66.795
CYHM,43.173,-79.936
NGFU,-8.523,179.198
HLLM,32.894,13.276
NFNS,-16.803,179.341
PLCH,1.988,-157.349
NVVV,-17.695,168.313
NVVW,-19.455,169.224
OYAA,12.829,45.029
NCMK,-20.137,-157.344
NCMR,-19.842,-157.703
NCNS,-99.99,-99.99
NCPK,-10.915,-165.839
NCPL,1.98,-157.48
NCPY,-9.01,-158.034
NCRK,-10.032,-161.101
NCSW,-99.99,-99.99
NCAI,-18.829,-159.766
NCAT,-19.968,-158.119
NCMG,-21.896,-157.907
NCMH,-10.374,-161.004
OLBA,33.82,35.491
SBJP,-7.148,-34.951
SBGL,-22.815,-43.261
FQNP,-15.106,39.282
VISM,31.082,77.068
FQBR,-19.796,34.908
SBGO,-16.632,-49.221
SBMN,-3.146,-59.986
MPMG,8.967,-79.555
MPPA,8.909,-79.597
SBNF,-26.88,-48.651
SBVT,-20.258,-40.286
SBAR,-10.984,-37.07
SBTE,-5.06,-42.824
SUDU,-33.359,-56.499
NFNL,-16.467,179.339
SBRF,-8.126,-34.923
GVNP,14.947,-23.484
GVSV,16.833,-25.055
NFTV,-18.585,-173.9628
NFTL,-19.777,-174.34
NFTF,-21.241,-175.15
MWCR,19.294,-81.357
VNKT,27.697,85.359
OPST,32.536,74.364
SBLO,-23.334,-51.13
SBPS,-16.439,-39.081
FMMI,-18.797,47.479
MHTE,15.776,-87.473
SKBQ,10.883,-74.78
SBKG,-7.27,-35.895
LYBT,44.935,20.258
LYKV,43.818,20.587
GOOY,14.741,-17.49
GOBD,14.671,-17.067
GOSS,16.051,-16.461
LYPG,42.359,19.252
GOTT,13.733,-13.657
GOGG,12.556,-16.282
GABS,12.534,-7.95
LYVR,45.147,21.31
BIAR,65.655,-18.069
BIEG,65.275,-14.409
GQNO,18.31,-15.97
GBYD,13.341,-16.653
BIKF,63.987,-22.614
BIRK,64.129,-21.941
DIAP,5.261,-3.926
OIBS,25.903,54.548
OIKM,29.084,58.45
OING,36.908,54.404
OIZB,31.094,61.546
OIZI,27.236,60.72
OIFS,32.297,50.842
OIIP,35.776,50.827
OIMB,32.894,59.29
OIMN,37.488,57.303
OIZJ,25.653,57.798
OIAW,31.343,48.751
OIFM,32.752,51.866
OIII,35.686,51.304
OIKB,27.218,56.378
OIKK,30.251,56.964
OIMM,36.236,59.639
OISS,29.539,52.59
OITT,38.13,46.24
OIZH,29.472,60.901
OIBL,26.532,54.825
OIBQ,29.259,50.324
OIIK,36.243,50.045
OINE,37.383,55.452
OITM,37.348,46.146
OIAG,30.74,49.684
OIAM,30.556,49.152
OICI,33.588,46.397
OIKQ,26.755,55.902
OINN,36.663,51.465
OINR,36.91,50.68
OISL,27.67,54.375
OISY,30.701,51.545
OIAA,30.366,48.23
OIBK,26.526,53.98
OICC,34.346,47.158
OIIE,35.416,51.152
OINZ,36.636,53.194
OITR,37.665,45.066
OIYY,31.905,54.276
OIBB,28.947,50.834
OIBP,27.38,52.738
OICK,33.435,48.283
OICS,35.245,47.009
OIHH,34.869,48.553
OITL,38.326,48.424
MYGF,26.555,-78.698
TFFR,16.265,-61.532
SBMS,-5.202,-37.364
SADL,-34.972,-57.895
SBCH,-27.132,-52.662
LFBY,43.69,-1.07
SBCO,-29.945,-51.144
LFMP,42.737,2.873
SPCL,-8.378,-74.574
SBJV,-26.224,-48.797
EIDW,53.422,-6.298
EINN,52.702,-8.925
EICK,51.848,-8.479
LUKK,46.928,28.931
WSSL,1.417,103.866
SBMG,-23.476,-52.017
SBSM,-29.711,-53.688
CMFM,47.323,-71.148
CMGB,45.373,-72.774
CWIK,50.366,-102.567
CWMT,63.134,-117.245
CZEV,68.313,-133.496
CZHY,60.839,-115.781
CZSM,60.026,-111.929
LFGJ,47.044,5.427
LFKS,41.924,9.406
LFSN,48.692,6.231
UHMM,59.911,150.725
UIBB,56.365,101.716
UIII,52.273,104.38
ULLI,59.798,30.267
SPJC,-12.024,-77.113
URSS,43.438,39.926
UTAA,37.975,58.371
UUDD,55.409,37.906
OBBI,26.271,50.634
OTBD,25.261,51.565
OTHH,25.273,51.609
OKKK,29.227,47.969
SBJU,-7.219,-39.27
MKJP,17.942,-76.798
SBAN,-16.229,-48.964
SBAF,-22.875,-43.385
SBAX,-19.563,-46.96
SBBH,-19.851,-43.951
SBBU,-22.345,-49.054
SBDN,-22.175,-51.427
SBES,-22.813,-42.093
SBIP,-19.471,-42.488
SBME,-22.343,-41.766
SBMK,-16.705,-43.819
SBMT,-23.509,-46.638
SBSC,-22.932,-43.719
SBSR,-20.817,-49.407
SBTA,-23.04,-45.516
SBUL,-18.883,-48.226
SBUR,-19.765,-47.965
SBYS,-21.982,-47.34
SBIZ,-5.53,-47.458
FBSK,-24.555,25.918
FBMN,-19.973,23.431
FYLZ,-26.687,15.243
FYOG,-28.585,16.447
FMMT,-18.11,49.392
FMNM,-15.667,46.352
LQSA,43.825,18.331
LQTZ,44.461,18.728
MKJS,18.502,-77.915
OIAH,30.336,50.83
OISF,28.895,53.72
SAZS,-41.151,-71.157
SAAC,-31.308,-58.016
SAAR,-32.918,-60.782
SABE,-34.559,-58.416
SACO,-31.324,-64.208
SADF,-34.457,-58.593
SADM,-34.676,-58.643
FCBB,-4.252,15.253
FKKD,4.006,9.72
FKYS,3.833,11.521
SADP,-34.61,-58.613
SAEZ,-34.822,-58.536
SAME,-32.832,-68.793
SAMM,-35.481,-69.583
SAMR,-34.585,-68.414
SANC,-28.593,-65.754
SANE,-27.755,-64.3
SANT,-26.841,-65.105
SANU,-31.572,-68.418
SAOR,-33.73,-65.387
SARC,-27.445,-58.762
SARE,-27.45,-59.056
SARF,-26.213,-58.228
SARI,-25.737,-54.473
SARL,-29.689,-57.152
SARP,-27.386,-55.969
SASA,-24.856,-65.486
SASJ,-24.387,-65.098
SAVC,-45.79,-67.471
SAVE,-42.906,-71.147
SAVT,-43.209,-65.282
SAVV,-40.867,-63.001
VOCL,11.137,75.955
SAWC,-50.284,-72.052
SAWE,-53.781,-67.754
SAWG,-51.609,-69.306
SAWH,-54.844,-68.308
SAZB,-38.725,-62.169
SAZM,-37.932,-57.581
SAZN,-38.95,-68.141
SAZR,-36.593,-64.28
CYBG,48.331,-70.989
CYZX,44.985,-64.912
CYQQ,49.712,-124.895
CYTR,44.115,-77.531
FOOL,0.459,9.412
FGBT,1.905,9.806
FNCA,-5.59,12.188
FNCT,-12.479,13.487
FNGI,-17.044,15.684
FNLU,-8.858,13.231
FNUE,-11.768,19.898
UAII,42.366,69.476
SBFI,-25.595,-54.488
VIAR,31.707,74.801
VIDP,28.567,77.117
VOBG,12.949,77.663
SAAV,-31.712,-60.812
SBLB,-22.109,-39.917
FNHU,-12.809,15.761
FZAA,-4.387,15.448
OPIS,33.551,72.827
UBBG,40.738,46.318
SBCT,-25.529,-49.176
SPHI,-6.787,-79.828
SPRU,-8.087,-79.109
SPUR,-5.206,-80.616
SAOU,-33.273,-66.356
SKCG,10.447,-75.516
FALW,-32.972,18.158
FAWK,-25.83,28.223
VOPB,11.641,92.73
VOHB,15.362,75.085
VERK,22.256,84.816
OIGG,37.325,49.606
NTTO,-18.075,-140.946
DNMM,6.577,3.321
LHBP,47.437,19.256
DXXX,6.166,1.254
LDDU,42.56,18.269
DBBB,6.357,2.384
LDPL,44.894,13.922
LDRI,45.218,14.573
DFOO,11.163,-4.322
DFFD,12.356,-1.512
LDSP,43.539,16.301
DRRN,13.483,2.17
DGAA,5.6,-0.17
LDZD,44.108,15.347
TFFF,14.591,-61.003
LZKZ,48.661,21.24
LZTT,49.068,20.25
SUMU,-34.838,-56.031
TAPA,17.135,-61.797
VECC,22.651,88.445
UBBY,41.561,46.667
MMML,32.631,-115.238
PKWA,8.72,167.724
DAOV,35.208,0.147
HESW,29.346,25.507
VOCB,11.03,77.043
HRYR,-1.969,30.14
OPLA,31.522,74.404
OPMT,30.203,71.419
OPPS,33.996,71.515
SKAR,4.455,-75.766
SKAS,0.505,-76.501
SKCC,7.93,-72.509
SKCO,1.814,-78.749
SKCZ,9.334,-75.283
SKEJ,7.026,-73.809
SKFL,1.589,-75.564
SKGO,4.758,-75.956
SKGY,4.812,-74.065
SKIB,4.418,-75.13
SKIP,0.858,-77.677
SKLC,7.817,-76.718
SKMR,8.826,-75.825
SKMU,1.117,-70.083
SKNV,2.949,-75.294
SKPC,6.184,-67.491
FMSD,-25.038,46.956
SKPD,3.854,-67.906
TNCM,18.041,-63.109
SKPP,2.453,-76.609
SKPS,1.394,-77.291
SKQU,5.213,-74.884
SKSA,6.955,-71.86
SKSJ,2.574,-72.64
SKSM,11.12,-74.231
SKTM,6.451,-71.76
SKVP,10.436,-73.248
SKVV,4.162,-73.618
SKYP,5.319,-72.384
CZKD,56.037,-96.51
CZRP,75.377,-105.715
CWEB,49.383,-126.543
TNCA,12.501,-70.015
LFRS,47.15,-1.609
LFOJ,47.985,1.754
LFRJ,48.527,-4.138
LFRD,48.589,-2.075
LFRN,48.069,-1.734
LFMV,43.911,4.903
LFOA,47.052,2.642
LFBT,43.189,0
LFMC,43.383,6.386
LFMY,43.604,5.108
LFRG,49.365,0.154
LFOV,48.031,-0.746
LFRI,46.702,-1.379
LFRV,47.722,-2.727
LFAQ,49.972,2.704
KNOZ,32.55,-114.512
PHHI,21.478,-158.044
KTIP,40.291,-88.146
KNGU,36.937,-76.281
KBML,44.576,-71.1782
SCBA,-45.913,-71.694
KMRH,34.7326,-76.6566
K0J4,31.0447,-86.3119
KMEI,32.3348,-88.7507
KROG,36.3749,-94.1078
KANE,45.1426,-93.2127
KEUF,31.9516,-85.1312
PASI,57.047,-135.364
KBCR,30.8432,-85.6043
KNFE,36.701,-76.129
KJKA,30.291,-87.661
KBKF,39.713,-104.758
MMQT,20.617,-100.194
KNYL,32.66,-114.6078
KNFL,39.417,-118.705
KSUE,44.847,-87.425
PHNG,21.45,-157.763
KFLG,35.1443,-111.6664
KTAZ,39.535,-89.3294
KNJW,32.792,-88.832
KYKN,42.9141,-97.3807
KSCR,35.7058,-79.5051
KDIJ,43.745,-111.0913
KAXS,34.6963,-99.3402
KMJX,39.9235,-74.297
KSDY,47.7029,-104.1951
PAMM,55.131,-131.578
PAMB,58.986,-159.05
KSLE,44.9049,-123.001
KWJF,34.7412,-118.2125
KLRD,27.551,-99.4614
KSGU,37.0444,-113.5034
RJOI,34.144,132.236
KSMN,45.1283,-113.8833
KFAM,37.7631,-90.4292
KENV,40.7211,-114.0312
PABA,70.135,-143.585
PAKP,68.136,-151.74
KDIK,46.7997,-102.7971
KART,43.9888,-76.0261
PFZK,60.9156,-161.4884
KSLG,36.1941,-94.488
PFTO,63.329,-142.954
KASH,42.7798,-71.5141
KPTN,29.71,-91.3381
KLBL,37.0375,-100.9574
KKLS,46.118,-122.898
KSFO,37.6196,-122.3656
KAMN,43.3209,-84.6871
KEAU,44.8665,-91.4881
KMOB,30.6882,-88.2459
KSBP,35.2381,-120.644
KLWS,46.3746,-117.0153
KINW,35.0279,-110.7221
KBMI,40.4777,-88.9144
KJAC,43.6129,-110.7366
KBZN,45.7876,-111.1615
KBIH,37.3711,-118.3589
KBOK,42.0754,-124.2902
K8D3,45.669,-96.9918
PAHO,59.642,-151.491
KJAX,30.4953,-81.6937
KD07,45.0326,-102.02
PASL,61.697,-157.167
KNDZ,30.6973,-87.0207
PAGA,64.738,-156.92
KSGT,34.5998,-91.5763
PACX,67.252,-150.204
PABL,65.979,-161.146
KAND,34.498,-82.7092
PAPE,55.9096,-159.1595
KWVL,44.5301,-69.6753
KUKI,39.1278,-123.2001
PAGM,63.777,-171.735
PAAK,52.219,-174.208
KEAR,40.7193,-99.0086
K2WX,45.6043,-103.547
KJMS,46.9259,-98.6704
KNTU,36.8209,-76.0277
KMTW,44.1322,-87.6819
PASA,63.689,-170.49
KIWD,46.5321,-90.126
KCGZ,32.9531,-111.7725
KEKO,40.824,-115.7863
KADF,34.0953,-93.069
KVPZ,41.4535,-86.998
PFKT,65.33,-166.479
PANA,60.694,-161.978
KBJJ,40.8732,-81.8886
KELZ,42.1077,-77.9842
KCOE,47.7719,-116.8332
KCVN,34.4227,-103.0803
KCVO,44.5013,-123.293
KNLC,36.3024,-119.9397
KLGD,45.2906,-118.0088
KMML,44.4504,-95.8215
KDVL,48.1136,-98.9034
POKA,60.5695,-165.2463
KNPA,30.356,-87.323
KSGJ,29.9592,-81.341
KD95,43.0675,-83.2702
KHEF,38.724,-77.5175
KMHS,41.3149,-122.3171
KLNR,43.2111,-90.1874
KDWU,38.556,-82.7375
KNYG,38.503,-77.301
KSFZ,41.9168,-71.4924
KGGP,40.7127,-86.3674
KMQY,36.0029,-86.5144
KEEN,42.898,-72.2695
KEGE,39.6448,-106.9176
PAQH,59.751,-161.842
KMWN,44.271,-71.304
KTPH,38.0505,-117.0906
KISM,28.2924,-81.4371
KHYI,29.8958,-97.8664
KGON,41.3279,-72.0489
PFKO,63.0334,-163.5323
PAOH,58.108,-135.448
KHYS,38.8392,-99.2742
PAPO,68.345,-166.807
PASX,60.476,-151.053
KBHB,44.4549,-68.3617
KSOP,35.2371,-79.3921
KGTR,33.456,-88.593
PABV,61.416,-149.511
KJRB,40.701,-74.009
KPQI,46.697,-68.054
PAVC,55.115,-162.271
KOXC,41.4741,-73.1353
KOTG,43.6525,-95.5759
KPWG,31.4891,-97.3202
KAUM,43.6688,-92.9321
KCXY,40.2184,-76.8552
KFCI,37.407,-77.522
KOFK,41.9799,-97.4335
PAPM,59.011,-161.82
KARG,36.1256,-90.9216
KLZZ,31.1059,-98.1975
KDAY,39.9064,-84.2185
KFLP,36.2925,-92.5851
KLEW,44.0444,-70.2853
KJXN,42.259,-84.4589
KCTB,48.6036,-112.3766
KSFM,43.3876,-70.7154
KRDM,44.2558,-121.1407
KEED,34.7678,-114.6184
KAUO,32.617,-85.4342
KBLM,40.1822,-74.1207
KEKQ,36.8576,-84.8562
KNMM,32.546,-88.543
PAWS,61.571,-149.538
KMVN,38.3284,-88.853
KBKX,44.3075,-96.8183
KHPN,41.0624,-73.7045
KFSD,43.5775,-96.7539
PASM,62.057,-163.298
PAWM,64.688,-163.41
KHEZ,31.6159,-91.2973
KNOG,27.895,-98.043
KLZU,33.9828,-83.9585
PAIG,59.325,-155.897
KSGH,39.8358,-83.8443
KHWV,40.8212,-72.8674
PAMY,60.376,-166.262
KHYA,41.6719,-70.2697
PATQ,70.469,-157.428
KLBT,34.6082,-79.059
PAGS,58.425,-135.707
PAZK,61.938,-147.169
PFCL,58.837,-158.526
PAHL,65.699,-156.353
KMBL,44.2714,-86.2378
PAIK,66.975,-160.439
KP28,37.2664,-98.5463
PAIN,63.733,-148.912
KCAE,33.9422,-81.118
KGDV,47.1401,-104.8127
PATG,59.051,-160.398
KBID,41.1668,-71.5757
KGPZ,47.2029,-93.5071
PAPH,56.959,-158.631
KAWO,48.1584,-122.1591
KSBD,34.09,-117.247
KGBD,38.3405,-98.8591
PAWG,56.486,-132.377
KSHV,32.4473,-93.8244
PFYU,66.572,-145.243
KFRM,43.6455,-94.4168
KHNB,38.2505,-86.9473
KI69,39.078,-84.21
KP60,44.5448,-110.422
KTVF,48.0597,-96.1787
KM19,35.643,-91.1735
PAJC,56.312,-158.374
PAOO,60.537,-165.089
KVBT,36.3444,-94.2211
KGNR,45.4649,-69.5542
KUDG,34.4474,-79.8902
KFKL,41.3805,-79.8603
KISP,40.7939,-73.1018
KUCP,41.0228,-80.4153
KEUL,43.6405,-116.6302
KEKY,33.314,-86.925
KEHR,37.8066,-87.6824
PAFE,56.961,-133.91
PANV,62.647,-160.191
KBTP,40.7765,-79.9568
KSXT,42.6,-123.366
KALK,31.606,-110.428
KCHS,32.8995,-80.0407
PFEL,64.616,-162.272
PAIW,65.621,-168.093
KSDF,38.1774,-85.7308
PANI,61.578,-159.539
PANU,64.7304,-158.0752
PFWS,58.704,-157.005
KPVU,40.224,-111.7252
KFNL,40.4427,-105.0097
KBVX,35.7259,-91.6518
PAKF,54.85,-163.409
PFSH,64.367,-161.217
PAHC,62.191,-159.773
PAGH,66.886,-157.159
PAEM,62.785,-164.488
PAHP,61.519,-166.138
PADU,53.896,-166.543
KPVG,36.7824,-76.452
KAFJ,40.1362,-80.2851
PADL,59.04,-158.507
KAJO,33.8956,-117.5961
KESC,45.7225,-87.0893
KGNA,47.745,-90.346
PANW,59.451,-157.325
KRUT,43.53,-72.9517
KVIS,36.3135,-119.3884
KP53,46.412,-86.6504
KGVQ,43.0298,-78.1665
PARS,61.78,-161.321
KGAD,33.9686,-86.0917
KPIB,31.4727,-89.3384
PFKW,60.793,-161.44
PATE,65.242,-166.328
PAII,58.186,-157.375
PAPN,57.578,-157.569
KSMP,47.2764,-121.3383
KOAJ,34.8251,-77.6189
KBCK,44.2499,-90.85
KGKT,35.8568,-83.5333
TJSJ,18.4326,-66.0106
KGXY,40.4345,-104.6296
K79J,31.3061,-86.3902
KCWI,41.8295,-90.3328
PAKK,64.939,-161.156
PALG,61.538,-160.34
KISO,35.324,-77.6187
KRHP,35.1939,-83.8618
PAWN,67.567,-162.977
KSPD,37.2834,-102.6138
PPIT,60.905,-162.443
KCOD,44.52,-109.0268
KNID,35.688,-117.69
KOWB,37.7297,-87.1683
PHNY,20.783,-156.955
KOLU,41.4472,-97.3391
KOCH,31.5809,-94.7081
KMKT,44.2184,-93.9179
KNGP,27.688,-97.292
KFGN,49.318,-94.902
KMSV,41.7056,-74.8004
PAPG,56.805,-132.935
KGAI,39.1696,-77.1653
K1M4,34.2832,-87.5986
KY50,44.0435,-89.304
KOKK,40.5304,-86.055
KGUC,38.5322,-106.9419
KADC,46.4502,-95.2135
KLCI,43.5718,-71.4254
PASK,66.599,-159.991
KJHW,42.1534,-79.2541
KMDT,40.1962,-76.7725
KITH,42.4931,-76.4569
PAOU,56.006,-161.162
PFNO,66.819,-161.024
KHDN,40.4842,-107.2296
KWMC,40.9018,-117.8081
KFOD,42.549,-94.182
KSRC,35.2134,-91.7393
KNJK,32.823,-115.668
KPRX,33.636,-95.4514
KGRD,34.254,-82.1526
KPVC,42.0743,-70.2183
KPTV,36.0273,-119.0629
KHND,35.9657,-115.1343
KGTU,30.6809,-97.6767
PPIZ,69.735,-163.003
KILE,31.084,-97.6885
PAMO,62.095,-163.686
KEWK,38.0621,-97.275
KNUC,33.022,-118.583
PARY,64.731,-155.463
KSQI,41.7432,-89.6655
KPWT,47.4942,-122.7594
PAKH,56.94,-154.181
KLAS,36.0719,-115.1634
KNSE,30.728,-87.022
PAVD,61.133,-146.251
KPRG,39.6982,-87.6669
KCPW,37.464,-106.804
KDNA,31.875,-106.6938
KHSB,37.8128,-88.5449
KGGF,40.871,-101.734
KBRG,34.6477,-106.8331
KQHY,-99.99,-99.99
KMMH,37.6253,-118.8384
KSAR,38.1463,-89.7025
KLNL,46.1514,-89.2108
KBXK,33.4178,-112.6884
KBDN,44.1006,-121.1984
KFFX,43.4417,-85.9936
LIQW,44.088,9.987
KDLZ,40.281,-83.114
LICT,37.911,12.488
KBYY,28.9717,-95.8584
KLCK,39.83,-82.919
KIIB,42.4544,-91.9504
KSUW,46.6833,-92.0926
KPIM,32.8421,-84.8766
TJRV,18.25,-65.643
K2R9,28.8267,-97.8676
KCKZ,40.3864,-75.2953
KCDI,39.976,-81.577
K5T9,28.8568,-100.5159
KFBR,41.3941,-110.406
KGPM,32.6928,-97.0485
K0VG,36.6576,-83.2147
KHHF,35.8929,-100.4046
KBEC,37.694,-97.215
KJDD,32.7403,-95.4945
KL08,33.2604,-116.3227
KMYP,38.4972,-106.32
K4O4,33.9134,-94.8546
K1A5,35.2228,-83.415
KAJG,38.6093,-87.7251
KJAS,30.8904,-94.0332
PASV,61.101,-155.577
KIKV,41.6878,-93.5695
EGVA,51.682,-1.79
KARV,45.9264,-89.7307
KHMZ,40.0863,-78.5167
KBVN,41.7302,-98.0546
KCJR,38.5261,-77.8574
KPYX,36.4103,-100.7514
KAPY,26.969,-99.249
KC75,41.0231,-89.3886
KMEZ,34.5414,-94.1918
K2C8,48.7838,-97.6297
K42J,29.844,-82.05
K3N8,47.26,-95.928
KFOA,38.6673,-88.4527
K6B9,42.9141,-76.4428
KBKD,32.7206,-98.8931
KHDE,40.4496,-99.3363
KWRI,40.016,-74.591
KAEL,43.6823,-93.3722
KCBK,39.4301,-101.0512
KBHC,31.712,-82.3902
KADW,38.8215,-76.8654
KF45,26.8419,-80.224
KBNL,33.2601,-81.387
KMJQ,43.6496,-94.9885
KBFZ,34.2316,-86.2481
KGSB,35.3445,-77.9458
MMLT,25.993,-111.35
KFOT,40.5529,-124.1337
KVAD,30.979,-83.192
KFYE,35.2061,-89.3929
KLCG,42.2423,-96.983
KAYS,31.2466,-82.4014
KMGE,33.9189,-84.5267
KBNW,42.0486,-93.8486
KGWB,41.3061,-85.0585
ETAR,49.437,7.6
KHIF,41.111,-111.962
KFRI,39.0568,-96.7617
KGPI,48.3041,-114.2643
FJDG,-7.313,72.411
KFBG,35.131,-78.932
K9K7,38.7502,-98.2316
K1BW,41.511,-103.995
KEDW,34.908,-117.874
KDYS,32.406,-99.85
K8A1,34.3996,-86.2682
KTTS,28.5987,-80.6816
K2V5,40.1,-102.241
K48I,38.684,-80.649
RODN,26.356,127.768
KPOY,44.8641,-108.79
KPNA,42.7929,-109.8051
KCMY,43.9581,-90.7398
K35A,34.6849,-81.6421
KPEQ,31.382,-103.5117
K2I0,37.3582,-87.3977
KOZA,30.7312,-101.2033
KHST,25.49,-80.379
KBAD,32.488,-93.658
KMUI,40.4381,-76.5643
KN24,36.8003,-105.598
KLUV,32.7481,-101.9127
KORG,30.068,-93.8043
KLUL,31.6682,-89.1705
KQYN,-99.99,-99.99
KHVE,38.418,-110.7041
KLSF,32.3239,-84.9826
KIAB,37.622,-97.268
KIBM,41.1894,-103.6708
KHMP,33.3916,-84.3312
KF05,34.2283,-99.2834
TXKF,32.364,-64.679
LIBN,40.238,18.138
LIBQ,39.331,16.396
LIRE,41.656,12.449
LIRY,-99.99,-99.99
KFYM,35.0603,-86.5656
KBUU,42.6908,-88.308
KGCY,36.1924,-82.8135
KGLX,28.2347,-88.9843
KGOO,39.224,-121.003
KGRY,27.6247,-90.4411
KPCW,41.5188,-82.8692
K9L2,34.996,-117.857
KGZN,32.3682,-99.026
KCAV,42.743,-93.7592
KORS,48.7081,-122.9092
KDMA,32.165,-110.887
KHLB,39.3463,-85.2602
KGNB,40.0904,-105.9113
KEGI,30.653,-86.525
KGEV,36.4312,-81.4206
KCHK,35.0927,-97.9709
KCNW,31.637,-97.071
KHSD,35.6018,-97.7093
KFSK,37.796,-94.7676
KSCK,37.89,-121.2264
KXNX,36.3745,-86.41
KSXS,31.364,-85.846
KGBK,27.2039,-92.2025
KCPP,33.5991,-83.1401
KCSB,40.307,-100.162
KCTZ,34.9752,-78.3628
KFHB,30.6131,-81.4623
K3T5,29.9064,-96.9478
KCVC,33.6312,-83.8482
KADU,41.6994,-94.9204
KCZL,34.45,-84.936
KDCM,34.7908,-81.1987
KDEH,43.2755,-91.7433
KDYB,33.062,-80.28
K9A4,34.66,-87.349
KRNO,39.5077,-119.7683
OKAS,29.347,47.521
KEDE,36.0286,-76.5668
K9Y1,47.3941,-102.7731
KBMC,41.5463,-112.06
KAAS,37.3569,-85.3152
K1FW,41.364,-103.489
KBIX,30.415,-88.922
KEGT,37.3251,-97.3901
KDZJ,34.8552,-84.0014
KEOK,40.4615,-91.4274
KU16,41.059,-113.083
KAXH,29.505,-95.476
KDZB,30.521,-98.3574
KFME,39.086,-76.757
KFMM,40.3315,-103.807
KS12,44.6394,-123.0585
KGBG,40.9329,-90.4334
KGCD,44.4029,-118.9672
K9V9,43.7653,-99.3163
KSLH,45.6523,-84.5202
KGLY,38.3572,-93.6774
K81R,31.2321,-98.7154
KGMJ,36.607,-94.7369
KP08,32.9359,-111.4269
KGUR,42.261,-104.732
KRCV,37.7092,-106.3549
KT74,30.5704,-97.4447
TNCE,17.497,-62.979
KTOC,34.588,-83.2974
K36K,37.9707,-101.2554
KT78,30.0754,-94.6996
K77S,43.9324,-123.0059
K1NW,40.632,-103.836
TJPS,18.011,-66.567
KDPL,34.9994,-77.9799
K8T6,28.3656,-98.1174
KFTN,28.2111,-100.0236
KD73,33.7826,-83.6948
KCZT,28.5204,-99.8192
KCLI,44.6152,-88.7313
KOYE,28.8669,-90.4911
KCKN,47.8404,-96.6201
KVTP,37.512,-105.171
KAVQ,32.4112,-111.216
KSVH,35.7635,-80.9473
KVUJ,35.4173,-80.1509
KVWU,48.1502,-94.5121
KW22,39.001,-80.2712
K1CM,47.096,-110.164
KO22,38.03,-120.415
KOWI,38.5409,-95.2542
EHPG,52.36,3.342
KEBG,26.4433,-98.1255
KGLW,37.0337,-85.9523
RKSG,36.962,127.031
EHKD,52.927,4.781
KFSW,40.6615,-91.3267
KFEW,41.141,-104.869
KTQS,34.633,-120.6175
KA39,32.9875,-111.9216
KVBG,34.733,-120.583
KLLJ,44.523,-114.2161
KEXX,35.7805,-80.3084
KVGN,34.8494,-120.5996
KSXU,34.9355,-104.6366
ETOU,50.048,8.329
KVHN,31.0602,-104.7832
K4V0,40.0956,-108.7619
KDVK,37.5764,-84.7641
K48A,32.3993,-83.2785
KD25,46.1204,-89.88
K40U,40.986,-109.678
KCXU,31.2142,-84.2358
KCTY,29.6334,-83.1055
K3F3,32.0718,-93.764
KSJX,45.6928,-85.5662
KDAA,38.714,-77.178
KRDR,47.9477,-97.4029
KVLL,42.543,-83.178
KMKG,43.1711,-86.2369
KHON,44.3792,-98.2227
KBYL,36.7954,-84.2013
NZWD,-77.867,166.967
KCIR,37.0639,-89.2232
KW40,35.2211,-78.0404
NZCM,-77.85,166.667
KTQK,38.4782,-100.8822
KMXF,32.3877,-86.3724
KMVH,46.838,-108.936
KTKV,45.469,-89.805
KI67,39.2565,-84.7753
KOLE,42.2429,-78.3721
KT35,30.8789,-96.9704
KMHP,32.374,-82.079
KSBX,48.541,-111.871
KCWC,33.8629,-98.4914
KSVR,40.6196,-111.9902
KRNV,33.762,-90.759
KRZL,40.9488,-87.1851
K1DW,41.361,-103.794
KK62,38.7018,-84.3964
KRLD,46.3086,-119.3058
KMNZ,31.6697,-98.1462
KSVC,32.631,-108.1466
KSNL,35.3611,-96.9445
KSMS,34.0003,-80.3582
KSLR,33.1615,-95.6189
KSME,37.0529,-84.6141
KRZN,45.8229,-92.3706
KP52,34.7263,-112.0343
KFKS,44.6246,-86.1985
KSMD,41.144,-85.1492
K0F2,33.6011,-97.7735
KSRB,36.0529,-85.536
EHFS,51.441,3.596
KSJS,37.7489,-82.6413
KSIF,36.4408,-79.8544
KPNT,40.9233,-88.6213
KO05,40.2865,-121.2427
KMZJ,32.5147,-111.3346
PGWT,14.997,145.624
KSAA,41.447,-106.815
KS33,44.6653,-121.1565
K1MW,40.704,-103.477
KRYV,43.1702,-88.725
KRUQ,35.6442,-80.5236
KERV,29.9779,-99.0872
PAAD,70.136,-146.29
KPRS,29.6346,-104.3585
KPPQ,39.6391,-90.7818
K11R,30.2232,-96.3734
KE77,32.634,-110.6467
KPHG,39.7343,-99.3179
KDRP,35.1213,-90.8246
KOXV,41.2984,-93.1114
KBQK,31.2567,-81.4754
K1AM,47.281,-110.801
KGZL,35.2913,-95.0956
KFFM,46.2865,-96.1534
KHCD,44.8597,-94.3855
KOLZ,42.6831,-91.976
TNCB,12.133,-68.277
KPHP,44.051,-101.6014
K9S2,48.808,-105.436
KOGS,44.68,-75.4642
KPAM,30.071,-85.577
KFKA,43.677,-92.174
KLXL,45.9509,-94.3441
KAGO,33.2266,-93.2154
KAIT,46.5483,-93.6754
KCNB,44.7297,-96.2623
KC07,40.3544,-106.6993
KSUT,33.9292,-78.0722
KEDJ,40.3714,-83.8142
K1MN,48.67,-101.88
K1ON,48.82,-101.28
KT69,28.0418,-97.541
K1KM,46.444,-109.801
KSRE,35.271,-96.675
KLSV,36.236,-115.034
KMYZ,39.8544,-96.6279
K65S,48.7255,-116.293
K1A6,36.6087,-83.7369
K1FM,47.605,-112.311
KCWN,38.748,-104.847
K3K3,37.9988,-101.7502
KECS,43.8845,-104.312
KIRK,40.0966,-92.5469
BGTL,76.527,-68.758
K1IN,48.34,-102.3
K1JN,48.41,-101.89
KXMR,28.4674,-80.5589
KSYI,35.5594,-86.4406
KXNO,33.612,-81.07
PAFR,61.263,-149.66
KIGQ,41.5412,-87.5282
K1DN,47.8,-101.3
KRNC,35.6991,-85.8402
KJPX,40.9605,-72.2511
KSZY,35.2064,-88.5012
KTYL,34.4577,-110.1118
KMMT,33.922,-80.802
KMNI,33.5882,-80.2059
K1HN,47.97,-102.22
KTDR,30.038,-85.528
KBKT,37.082,-77.953
RJTR,35.514,139.395
RJTY,35.749,139.349
K1MM,47.014,-109.63
KAZC,36.959,-113.013
KLFI,37.088,-76.349
KMLE,41.1981,-96.1131
KTBX,43.4644,-108.2382
K1GM,47.325,-112.093
KLRF,34.92,-92.131
KM25,36.764,-88.5829
K17J,31.0038,-84.8794
K1LN,48.79,-102.27
K96D,48.9402,-97.9053
KLUX,34.508,-81.949
KLRU,32.2884,-106.9131
KLKR,34.7266,-80.8532
KMTK,28.6967,-89.3958
K1JW,40.961,-103.199
K1NN,48.76,-101.59
PACZ,61.776,-166.043
KAUH,40.8966,-97.9973
KMOR,36.1746,-83.3853
KMNV,35.5429,-84.3808
KERY,46.3151,-85.4568
KMMI,35.3952,-84.5612
KMKQ,27.5197,-90.0981
KMIO,36.9128,-94.8893
KCAO,36.4483,-103.1537
KMBT,35.8767,-86.3793
KXNA,36.2897,-94.3115
KLHZ,36.0229,-78.3341
KLUM,44.8936,-91.8666
KGTB,44.0618,-75.7218
KLHB,30.8693,-96.6207
KPPA,35.6139,-100.9972
KM91,36.5363,-86.919
KJSY,45.3556,-117.2541
KAAT,41.4836,-120.5615
KM75,48.3686,-107.9188
RKSO,37.091,127.03
K1CW,41.581,-103.573
KPSM,43.0677,-70.8127
KM02,36.1289,-87.4283
KLUG,35.5082,-86.8055
KLIC,39.2733,-103.6674
K1GN,48.12,-101.96
PAKX,60.198,-154.323
KSKF,29.392,-98.581
K3AU,37.6729,-97.0792
KIKG,27.5464,-98.0292
KDRI,30.8344,-93.3358
KSLI,33.796,-118.042
K24A,35.3156,-83.2071
KHSG,43.7178,-108.3851
KTCM,47.149,-122.475
K5H4,47.7906,-99.9346
KEAT,47.3975,-120.2013
K6I2,37.6352,-85.2418
KTHA,35.3804,-86.2419
KBWW,46.1656,-103.2964
KBAM,40.6048,-116.8719
K13K,37.8519,-96.2929
KIXA,36.331,-77.6333
KRKW,35.922,-84.689
KIFP,35.1487,-114.5611
KONP,44.5825,-124.0575
KXIF,-99.99,-99.99
KHZD,36.0889,-88.4654
KGFA,47.505,-111.187
K06D,48.8821,-99.6217
ETIK,49.472,10.39
KCOM,31.8415,-99.4058
K57C,42.7972,-88.3655
KRYM,46.0878,-94.353
KFOM,38.9618,-112.36
KCWF,30.2216,-93.1467
K5R8,30.4368,-93.4696
KBDH,45.1111,-95.1258
KULS,37.6037,-101.377
KVOK,43.938,-90.253
K6A1,32.5733,-84.247
K16J,31.7435,-84.417
K1KW,41.137,-103.488
KGHG,42.0961,-70.6769
KUSE,41.6118,-84.1275
KUWL,39.8752,-85.3313
KRUG,48.389,-100.025
KCNK,39.5513,-97.6508
KGRF,47.079,-122.58
KVCV,34.5933,-117.3893
KVOA,29.2289,-87.7808
KADH,34.8021,-96.6701
K1BM,47.285,-110.359
KHBV,27.3516,-98.7415
KDWX,41.037,-107.4998
KHMN,32.852,-106.108
K1AW,41.329,-104.265
KHMT,33.7303,-117.0272
KBLV,38.54,-89.845
KMEV,38.9963,-119.75
K9D7,48.4816,-99.2346
KJWY,32.456,-96.914
K0A0,32.99,-106.9674
EHSA,51.998,3.275
KBAX,43.7774,-82.9828
K0R0,31.2969,-89.816
KEND,36.338,-97.919
K18H,26.1283,-92.0333
KAIG,45.1566,-89.1115
KFTK,37.907,-85.973
KGXF,32.885,-112.721
K1D8,44.86,-98.529
KK88,37.8692,-95.384
KJYR,40.8942,-97.6258
KJSV,35.4381,-94.8012
KXBP,33.1729,-97.8268
KIPJ,35.4861,-81.1564
KIJX,39.774,-90.2419
KIDP,37.1566,-95.7792
KTME,29.806,-95.903
KTQH,35.9304,-95.0025
KI95,40.6142,-83.6374
KUKF,36.2188,-81.1002
KMKN,31.924,-98.5978
KDLL,43.5236,-89.7736
K3R7,30.2427,-92.6759
KUXL,30.135,-93.3767
KHYW,33.8255,-79.1259
K4M9,36.404,-90.647
KHVS,34.4065,-80.1198
KHQU,33.5279,-82.518
KVTI,42.2176,-92.0249
KHII,34.5659,-114.3522
KW43,44.6607,-104.5677
KHDC,30.5237,-90.4176
KHBI,35.6527,-79.8942
KIZA,34.6059,-120.0761
KPSN,31.7784,-95.7048
KY23,45.311,-91.638
KSOA,30.5853,-100.6506
KCQW,34.7128,-79.9622
KRNH,45.1476,-92.5335
K0R4,31.5637,-91.5098
KCGC,28.866,-82.5741
KEBA,34.0957,-82.8121
KSHL,43.2082,-95.8354
KE41,31.1945,-101.4732
KOOA,41.2273,-92.4919
K8B0,44.99,-70.6624
KCKM,34.2945,-90.5146
KOCQ,44.8749,-87.9084
KCLW,27.9741,-82.7563
KIMS,38.7515,-85.4689
KCQF,30.4618,-87.8749
KU52,38.232,-112.6725
KCCY,43.073,-92.6132
KTCY,37.6919,-121.4442
KBRY,37.8079,-85.5011
KP58,44.0217,-82.7929
K2P2,45.388,-86.924
KSUO,43.259,-100.862
KAIK,33.651,-81.6821
K2G9,40.0401,-79.0158
KAHQ,41.241,-96.594
KBPC,35.8913,-101.0275
KDNN,34.727,-84.8733
KAFK,40.6065,-95.8635
KDTA,39.3879,-112.5041
KSPK,40.1497,-111.677
KDUH,41.7375,-83.6493
KT82,30.239,-98.904
KBKS,27.2064,-98.1216
KEDN,31.299,-85.9
KPSO,37.291,-107.0557
KOSA,33.0936,-94.9601
KOAR,36.6815,-121.7574
KLMO,40.1612,-105.1605
KGYI,33.7231,-96.6714
KEKM,41.7222,-86
KPWD,48.7912,-104.5253
KDVO,38.1417,-122.5547
KEKX,37.6924,-85.9204
KC09,41.4317,-88.4152
KELK,35.4261,-99.3926
KDKB,41.9338,-88.7066
KD57,46.814,-101.864
KEQA,37.7753,-96.8145
KCFS,43.4624,-83.4428
K6B0,43.9888,-73.0952
K7BM,38.799,-106.219
KEZZ,39.729,-94.2785
K33V,40.7454,-106.2754
K46D,47.4509,-99.1479
K20V,40.0563,-106.3744
KFPY,30.0719,-83.5731
K22N,40.8115,-75.7648
K1H2,39.0712,-88.5293
KFSE,47.589,-95.773
KFBL,44.3298,-93.3119
KTMK,45.421,-123.8144
K00U,45.7453,-107.6606
KFWC,38.3796,-88.4135
KT20,29.5301,-97.463
KCAD,44.2785,-85.4207
KGDA,37.3344,-88.1095
KD09,48.83,-100.417
KBGE,30.9709,-84.6344
KPHN,42.9103,-82.5332
KPDC,43.0194,-91.1212
KFQD,35.43,-81.936
KJZI,32.7025,-80.0058
K1U7,42.252,-111.337
KVAF,27.3536,-94.6253
KASL,32.5207,-94.3066
LIBY,39.811,18.342
KONX,36.399,-76.014
KO61,38.684,-120.988
KFFL,41.0521,-91.9834
KLLN,33.556,-102.3751
K0A9,36.3711,-82.1768
KO26,36.5883,-118.052
KF00,33.6158,-96.1809
K05U,39.6015,-116.0056
KLOM,40.1376,-75.2684
KN38,41.7287,-77.3958
KLRO,32.8982,-79.7796
KEHO,35.2557,-81.5986
KEGV,45.9309,-89.267
KECU,29.948,-100.1736
LIRT,41.047,15.233
K4A9,34.4759,-85.717
KCIN,42.0444,-94.7888
KMGR,31.0835,-83.8035
KMUT,41.367,-91.1406
K6S2,43.9838,-124.11
KLGF,32.868,-114.393
KDUC,34.4778,-97.9616
KBXA,30.8104,-89.8628
KDNS,41.9842,-95.38
K54J,30.7312,-86.1542
KMQI,35.9188,-75.6989
KMLJ,33.153,-83.242
K3U3,46.1516,-112.8683
KAFF,38.971,-104.816
KOIN,39.8298,-100.5377
K2R2,39.7511,-86.4732
K2M8,35.276,-89.931
K2IS,26.739,-81.0528
KOPL,30.5643,-92.1021
KICL,40.7242,-95.0222
K24J,30.299,-83.0225
KOQN,39.9889,-75.5803
KLKP,44.265,-73.963
KINS,36.586,-115.69
KTBN,37.7445,-92.1447
KL35,34.2626,-116.8551
K1B9,42,-71.197
KOEO,45.3108,-92.6948
KCPU,38.1445,-120.6454
KPZQ,45.4085,-83.812
KVYS,41.3518,-89.1496
KCOF,28.242,-80.608
KSEF,27.4553,-81.3415
KP33,32.245,-109.895
KFGX,38.5383,-83.7467
KBFR,38.8383,-86.446
KS52,48.4282,-120.1505
KD60,48.3834,-102.8985
KRFI,32.1442,-94.8539
KC29,43.1153,-89.5311
KNY0,42.999,-74.3293
KCSQ,41.0189,-94.361
KDBN,32.5632,-82.9855
KPZZ,28.4344,-91.0344
KFET,41.4489,-96.5237
KFKR,40.2748,-86.5644
KRZR,35.207,-84.8004
KHJH,40.1493,-97.5872
KGIC,45.9411,-116.1326
KI75,41.0472,-93.6876
EHJA,53.824,2.945
KS34,47.4718,-114.9009
KMXO,42.2203,-91.1604
KOQU,41.5995,-71.4111
KSCX,36.4553,-84.584
KRCR,41.0651,-86.1864
KSDA,40.7533,-95.4112
KGGE,33.3138,-79.3187
KSLB,42.5972,-95.2399
KTIF,41.9646,-100.5687
KUNI,39.2129,-82.2204
KZER,40.7072,-76.371
K5C1,29.7267,-98.6964
K6P9,32.4293,-98.5959
K74V,40.2799,-110.0498
KANK,38.538,-106.049
KT89,29.2774,-103.6912
KAUN,38.9553,-121.0865
KBVS,48.4696,-122.4189
KDKR,31.3097,-95.4039
KJWG,35.863,-98.423
KTQV,36.007,-78.937
KLHM,38.9149,-121.3516
KLNA,26.5925,-80.0848
KU55,37.8511,-112.3912
KEIK,40.0117,-105.0503
KU69,40.198,-110.3873
KELA,29.602,-96.3239
KFLY,38.9439,-104.5684
KF70,33.577,-117.126
KGDJ,32.4469,-97.817
KGOP,31.4208,-97.7951
KMJD,30.494,-89.6535
KMNH,39.2232,-104.6423
KU68,44.9113,-108.4469
KUKL,38.3041,-95.7217
KVMR,42.765,-96.93
KXER,27.946,-90.997
KXLL,40.5704,-75.4894
KWDR,33.981,-83.667
KX26,27.813,-80.497
EHAM,52.315,4.79
EHHW,54.037,6.042
KRKR,35.0187,-94.6202
NZFX,-77.956,166.767
KLHW,31.8872,-81.5625
EHGG,53.12,6.579
KBDU,40.0377,-105.2274
KPTT,37.7069,-98.7453
KRAS,27.8084,-97.0853
KFXY,43.2323,-93.6237
KSBO,32.6111,-82.3702
KRGA,37.6305,-84.329
KGHB,27.8403,-91.9878
KSCD,33.1732,-86.2933
KHFF,35.0424,-79.4973
KGNG,42.9155,-114.7655
KTNU,41.6701,-93.019
EHRD,51.954,4.444
KPKV,28.6499,-96.6799
KPMU,34.3655,-89.8905
KGUL,27.3039,-93.5383
KPMV,40.9446,-95.9124
KGVW,29.1303,-94.5466
KPPO,41.5705,-86.7333
KGZS,35.1532,-87.0543
KPRO,41.8278,-94.1637
KHRF,46.2576,-114.1274
KPVB,42.6909,-90.4413
KPVJ,34.7041,-97.2211
KHTH,38.5448,-118.6314
KRBO,27.7781,-97.6878
KI93,37.7836,-86.443
KRYW,30.498,-97.969
KIMM,26.4321,-81.4073
KBKN,36.7431,-97.3479
KAAA,40.1584,-89.3389
K04V,38.099,-106.17
KJVY,38.3692,-85.7366
KU96,37.4395,-110.5642
KK70,25.322,-80.277
KAFO,42.7139,-110.9443
KLLR,39.2621,-123.7525
KAXX,36.422,-105.29
KBBD,31.1766,-99.3229
KBPG,32.2097,-101.5247
ETEB,49.308,10.639
LIVC,44.194,10.7
KSPA,34.9106,-81.9589
KSSI,31.1527,-81.3905
KSYF,39.7583,-101.7927
KLXY,31.6446,-96.5122
KPEZ,28.9561,-98.5184
K0D8,44.989,-99.954
KSEZ,34.8467,-111.7884
KTEX,37.954,-107.909
KTVI,30.9026,-83.8826
KVPC,34.1159,-84.8507
KGYF,26.1292,-94.8981
K06C,41.9924,-88.1091
K0CO,39.794,-105.764
K46U,43.181,-111.037
K4R5,46.7887,-90.7559
KACB,44.9867,-85.2022
K6E5,44.4324,-97.5598
K6S0,45.8063,-109.9736
K4B8,41.69,-72.865
K7S0,47.5676,-114.0999
K8A3,36.4164,-85.3061
K8V7,37.4547,-102.6192
K9S9,45.4551,-119.6859
KD55,48.7519,-98.3971
KANR,27.2264,-91.19
KEFK,44.8886,-72.2296
KATP,27.1956,-90.0269
KEFT,42.6196,-89.5931
KBGF,35.1741,-86.0678
KC83,37.8276,-121.6244
KI74,40.1314,-83.757
KBTA,41.415,-96.109
EHLE,52.456,5.522
KEDU,38.5301,-121.7883
KBVI,40.7735,-80.3825
KIDI,40.6337,-79.1036
LIPC,44.224,12.307
KLWA,42.3476,-86.2578
LIPF,44.814,11.61
KFHU,31.586,-110.348
KVDI,32.1933,-82.3642
K27K,38.239,-84.4336
KMQB,40.5176,-90.6481
KMRJ,42.8875,-90.2315
K2D5,46.1739,-98.083
LIPI,45.979,13.049
KT70,29.117,-100.473
KC35,43.5261,-89.9809
LIPS,45.689,12.101
KEZS,44.7871,-88.564
KRZT,39.4402,-83.0209
KRPD,45.4186,-91.7764
KCBG,45.557,-93.264
PAEH,58.652,-162.062
KCFE,45.1601,-93.8461
KTYQ,40.0345,-86.2488
K2J9,30.5987,-84.555
LIBV,40.766,16.935
K3LF,39.1605,-89.6742
KCMA,34.2114,-119.0876
KCVX,45.304,-85.2689
KCXE,36.7923,-78.5027
LICF,38.2,15.549
KEVM,47.4274,-92.4972
KSLO,38.6446,-88.9612
KGPC,39.635,-86.816
EHFD,54.854,4.696
EHDV,54.326,2.936
KFPK,42.5764,-84.8125
KSTE,44.5437,-89.5347
KHPT,42.7175,-93.2244
KRRL,45.1985,-89.71
LICZ,37.406,14.919
KI63,39.9883,-90.8023
KAJZ,38.7869,-108.0658
LIED,39.354,8.973
KUBE,45.5046,-91.978
K14Y,45.9017,-94.8727
EHAK,55.399,3.81
K4V9,42.1109,-98.041
KBJI,47.5076,-94.9279
K82C,43.8385,-90.1345
KF46,32.9322,-96.4349
KHEQ,40.5716,-102.2768
KCBM,33.6519,-88.4567
KPLU,47.1005,-122.2853
KASW,41.274,-85.842
KRPH,33.1095,-98.5537
KZPH,28.2268,-82.1564
KY51,43.5814,-90.8997
KCXP,39.1905,-119.7319
KPBH,45.7064,-90.4052
KSBS,40.5153,-106.8677
KAXA,43.0796,-94.2724
K1EN,47.75,-101.67
KTSP,35.1387,-118.4424
KBIE,40.3005,-96.7517
KSXK,42.9895,-96.1645
KU64,37.9333,-109.3396
KUVA,29.2135,-99.743
KC65,41.3636,-86.2998
K0E0,34.9837,-105.9958
K0S9,48.0554,-122.8115
KISQ,45.9729,-86.1728
KPBX,37.5587,-82.5674
KOZW,42.6327,-83.9854
KRIV,33.878,-117.244
K60R,30.368,-96.113
KAWG,41.2749,-91.6745
KMQS,39.9773,-75.8605
KLBO,37.6449,-92.6544
KOGA,41.1164,-101.7679
KAEJ,38.8116,-106.1213
KM30,37.1824,-88.7487
KLRY,38.6074,-94.3453
KHVC,36.8603,-87.4478
KLVN,44.6252,-93.2273
KCXW,35.0217,-92.5506
K15M,34.7745,-88.1676
KMAN,43.582,-116.5211
KMAW,36.5945,-89.9865
KATS,32.8524,-104.4644
K18A,34.3418,-83.1316
KMHL,39.093,-93.2024
LIVT,45.677,13.754
KBDG,37.587,-109.481
KOFF,41.122,-95.91
KVES,40.2056,-84.5346
KGWR,46.2185,-97.6396
LIMK,45.033,7.731
KBWD,31.7898,-98.9522
KDKX,35.9658,-83.8717
KCPT,32.3526,-97.435
K1A9,32.4374,-86.5098
KMAO,34.1852,-79.3341
KMWO,39.5324,-84.3974
K1F0,34.1508,-97.1242
LIRM,41.061,14.082
KLXN,40.7915,-99.775
KADS,32.9634,-96.8354
K1R7,31.6057,-90.4072
KMUO,43.03,-115.859
KMDZ,45.1013,-90.3064
KRTS,39.6658,-119.8731
KJOT,41.5175,-88.179
KO69,38.2601,-122.607
K1AN,47.97,-100.58
KPCZ,44.3342,-89.0203
K82V,41.151,-104.1288
K6R3,30.358,-95.007
KHOP,36.672,-87.495
KGUS,40.6375,-86.1631
KCPC,34.2753,-78.7146
KMKS,33.1874,-80.0363
KO54,40.746,-122.9224
KMWK,36.4568,-80.5549
KKY8,37.953,-86.8592
KMDQ,34.866,-86.559
KJYL,32.6459,-81.5894
KCVS,34.381,-103.322
KMDD,32.0359,-102.0995
KBIJ,31.4,-84.8939
LIPL,45.432,10.268
KJVW,32.307,-90.412
KJSO,31.869,-95.2145
KFCH,36.7338,-119.8204
KLNC,32.5832,-96.7209
ETAD,49.979,6.698
KEZP,28.2198,-92.7944
LIRK,42.466,12.979
LIRS,42.76,11.072
KLNP,36.9884,-82.524
KETO,28.0336,-89.1008
KLUA,38.667,-78.501
KFFO,39.837,-84.035
KLUD,33.2568,-97.5826
KEKE,28.4971,-91.5702
KJFZ,37.0634,-81.7969
KE01,31.5804,-102.9081
KDWA,38.5803,-121.8543
KDSF,28.3426,-88.2649
KJFX,33.9008,-87.3092
KLVL,36.7723,-77.7925
KLCQ,30.1838,-82.5684
KIYA,29.976,-92.0826
KPTS,37.4512,-94.7322
KLOR,31.36,-85.749
KCRX,34.9209,-88.6071
KC08,38.0138,-105.3731
KLYO,38.343,-98.2266
K4V1,37.6941,-104.7881
KM21,37.2291,-87.1542
KBQX,28.314,-95.62
K4A6,34.688,-86.006
KPXE,32.5072,-83.7656
K49A,34.6301,-84.5271
KHZX,46.6189,-93.3128
K3K7,38.4566,-101.3527
KHQG,37.1647,-101.3714
KHRJ,35.3794,-78.7356
LIMY,44.258,7.794
LIMU,43.958,8.17
LIMH,45.935,7.707
KDCY,38.6953,-87.1314
KHFJ,36.9105,-94.0099
LIVR,46.298,11.787
KMCF,27.8598,-82.5132
LIVM,44.441,12.296
LIVF,43.517,12.728
KHEG,30.2771,-81.8087
LIVE,46.833,10.5
K1LW,40.921,-103.691
KACJ,32.1106,-84.1841
K1HW,41.325,-102.83
KCWV,32.193,-81.873
KACP,30.7469,-92.687
LIVD,46.729,12.228
LIQC,40.558,14.201
KCUH,35.949,-96.768
KNKX,32.865,-117.137
KGWW,35.4637,-77.9604
KAFP,35.0194,-80.0784
KCNC,41.0185,-93.3608
KCMD,34.2722,-86.8583
KALM,32.8351,-105.9941
KSEQ,29.566,-97.908
KCNI,34.31,-84.424
KRND,29.537,-98.268
KBYS,35.271,-116.634
KCKI,33.7186,-79.8567
KARM,29.2515,-96.1508
KIOB,38.0575,-83.9829
KSWW,32.4688,-100.4669
KGDK,39.6935,-83.9896
KFZG,31.684,-83.2712
KFYG,38.5877,-90.9915
KBXM,43.8848,-69.9354
KFWB,36.6933,-93.4049
KBFA,45.166,-84.924
EBBE,50.759,4.768
KAPS,30.086,-90.584
KI35,36.8577,-83.3586
KF17,31.8277,-94.154
KANY,37.154,-98.078
KEVU,40.3524,-94.9137
KGYH,34.763,-82.375
K4BM,39.05,-105.514
KAGZ,43.064,-98.295
KEOE,34.3062,-81.6413
KREG,30.1756,-90.9397
K63S,48.544,-117.884
K98D,44.7008,-100.101
KRCZ,34.8955,-79.7576
K54A,26.8601,-82.2468
KRBW,32.921,-80.64
KWRB,32.639,-83.593
KGCM,36.2918,-95.4825
KBBP,34.6228,-79.7354
K49B,44.4284,-103.3799
K42A,36.0713,-91.8287
K3W7,47.9219,-119.0771
KGAO,29.4352,-90.2599
KCDN,34.2815,-80.5636
KPVF,38.7222,-120.757
KGRN,42.8039,-102.181
KCDH,33.619,-92.765
KTBR,32.48,-81.738
KPCM,28.0013,-82.1593
KOYM,41.4118,-78.5131
KPUJ,33.9085,-84.9369
KXNI,35.058,-108.9413
KCOQ,46.6986,-92.5034
KCVH,36.892,-121.4105
KDYT,46.7231,-92.0438
KEZF,38.2685,-77.448
KFKN,36.6984,-76.9032
KHOE,31.0561,-82.7726
KJYG,43.9855,-94.5527
KHZE,47.288,-101.577
KAIO,41.4059,-95.0465
K1CN,47.71,-101.01
KI16,37.5998,-81.5589
K1K8,36.543,-95.012
K1M5,36.5956,-86.478
KHEY,31.348,-85.655
KM40,33.8755,-88.4872
KPO1,48.134,-105.162
KIER,31.736,-93.1003
KINF,28.8062,-82.319
K2A0,35.4817,-84.9322
KJGG,37.24,-76.718
KAJR,34.5006,-83.5519
KJRO,38.9861,-82.5756
KLKU,38.0085,-77.9681
KMCD,45.866,-84.634
KK82,39.7606,-98.7957
KLDM,43.9614,-86.4107
KLRJ,42.7771,-96.195
K79S,47.845,-110.636
KSEP,32.215,-98.1793
K2G2,40.359,-80.7
KTIK,35.415,-97.386
K66R,29.6382,-96.5138
KOKM,35.6713,-95.9514
KALX,32.916,-85.964
KMNE,32.6433,-93.2972
K1LM,46.694,-109.74
KLNN,41.6839,-81.3896
K4S2,45.6746,-121.535
OEPS,24.063,47.581
KK83,39.9053,-95.7747
KHXD,32.2263,-80.6949
KHNZ,36.3635,-78.5289
KTVY,40.6127,-112.3537
KJCA,34.1739,-83.5583
KHHW,34.0308,-95.5401
KLQK,34.8069,-82.7047
KPEA,41.3989,-92.9431
KTDF,36.2841,-78.9884
KNKT,34.897,-76.881
KGYB,30.1714,-96.9785
KVPS,30.483,-86.526
KCVB,29.343,-98.8497
KRQO,35.4709,-98.0061
KOEB,41.9308,-85.0544
KBMT,30.0686,-94.2155
KMIB,48.4062,-101.3413
PAFB,64.836,-147.614
KRVJ,32.059,-82.153
K2G4,39.5827,-79.3418
OTBH,25.117,51.315
K2M2,35.2372,-87.2611
PAED,61.25,-149.837
KFCS,38.6756,-104.751
K1OW,40.885,-103.999
K3S8,42.51,-123.388
RKJK,35.9,126.618
KWWR,36.4374,-99.5234
KPGV,35.6374,-77.3851
KMKJ,36.8944,-81.3449
KCEF,42.201,-72.525
KMKV,31.0935,-92.0723
KGRK,31.0779,-97.8323
KOWP,36.1721,-96.1536
KAQO,30.7873,-98.6608
KSHM,38.8,-104.52
EHMG,53.614,4.96
K1GW,41.208,-103.097
KDUX,35.8608,-102.0095
KVGC,42.8444,-75.5637
KVJI,36.6872,-82.037
KE11,32.3281,-102.5283
KAQX,32.9941,-81.271
KNTD,34.124,-119.123
KE16,37.0797,-121.598
EHSC,51.926,3.67
KEAN,42.0563,-104.9386
KEMM,41.8224,-110.5555
K1D1,45.231,-96.566
KCTJ,33.6313,-85.1538
KHRX,34.8628,-102.32
K33N,39.218,-75.597
KCYD,28.1694,-89.2228
KLSB,32.334,-108.6955
K1EW,41.103,-103.983
KPSK,37.1337,-80.6789
KPHT,36.3322,-88.3871
KCKP,42.7304,-95.5538
KVVS,39.9582,-79.6575
KO86,40.9845,-122.6935
KONL,42.4691,-98.6903
KDOV,39.13,-75.465
KCBF,41.2611,-95.7604
KRMN,38.3941,-77.4523
KGOV,44.681,-84.727
KLWB,37.8633,-80.3923
KRQB,43.722,-85.498
EHMA,53.492,5.942
KANW,42.5748,-99.9984
KJHN,37.5782,-101.7305
KN03,42.5929,-76.2174
EHKV,53.269,3.628
KE38,30.3851,-103.6803
KRCA,44.155,-103.118
K1IW,41.046,-102.865
KAVK,36.7765,-98.6724
KE57,32.976,-102.843
KHNR,41.5842,-95.3358
KOEL,39.1139,-100.819
EBBL,51.168,5.47
KTXW,26.1824,-97.9742
KASJ,36.2941,-77.1724
K5A6,33.469,-89.727
KEBS,42.4372,-93.8725
KLTS,34.666,-99.27
EBCV,50.576,3.831
KMZZ,40.4863,-85.6859
K1HM,47.698,-111.943
KOBE,27.2663,-80.8487
EBDT,51.005,5.067
KASN,33.569,-86.0519
K1IM,47.312,-111.473
KS31,48.4854,-122.9369
EHBK,50.905,5.762
K04W,46.0244,-92.8991
KRSV,39.0136,-87.6484
KETB,43.4225,-88.1326
KDUA,33.9427,-96.3967
K7L2,46.219,-100.2449
K1OM,47.328,-108.927
K8D4,43.1295,-85.6779
K1JM,47.751,-111.547
KS39,44.2858,-120.9008
EBFN,51.09,2.653
KQBR,-99.99,-99.99
K1DM,47.376,-109.814
PHSF,19.758,-155.557
K1NM,47.059,-109.031
KTTA,35.5762,-79.1035
KMHR,38.56,-121.284
KPOB,35.175,-79.008
KMCC,38.678,-121.403
KSVN,32.011,-81.131
KNBG,29.837,-90.024
KBTN,45.8186,-97.7457
K4MR,34.29,-103.791
PATL,62.893,-155.977
EBFS,50.243,4.646
KEYF,34.6042,-78.579
KPOE,31.047,-93.194
PALU,68.873,-166.101
KF44,32.165,-95.829
KBIF,31.861,-106.369
KFDW,34.3151,-81.1119
KSZL,38.736,-93.55
KAST,46.157,-123.8833
K3D2,45.1348,-87.1881
KDLH,46.8435,-92.1866
EHDL,52.061,5.887
EBLB,50.482,6.181
EHEH,51.45,5.377
EHGR,51.565,4.935
KSSC,33.978,-80.466
EHLW,53.223,5.752
EHVK,51.658,5.707
EHVL,53.297,5.086
KTZR,39.8988,-83.1357
KGDB,44.7521,-95.5591
EHWO,51.448,4.342
KAVC,36.6854,-78.0523
LIQO,42.387,11.17
KAXV,40.4959,-84.2929
KCKF,31.9889,-83.7739
KSUU,38.25,-121.938
KBAC,46.9419,-98.0179
KHRT,30.428,-86.69
KCEY,36.664,-88.372
KGGI,41.7097,-92.7332
KMPR,38.3491,-97.6883
KEFD,29.606,-95.16
PGUM,13.4796,144.7958
KRIC,37.5115,-77.3234
KOFP,37.7093,-77.4348
PGSN,15.116,145.72
K2V6,40.1047,-102.7128
KROA,37.3172,-79.9737
KMKC,39.1279,-94.5892
KWAL,37.9372,-75.4662
KMVL,44.5328,-72.6152
KLYH,37.3213,-79.2065
KSLC,40.7707,-111.965
KAVL,35.4318,-82.5379
KIND,39.7252,-86.2816
PAKN,58.683,-156.656
KMIV,39.3662,-75.0778
KNXP,34.294,-116.1472
KGCK,37.9221,-100.723
KAPN,45.0716,-83.5645
KIZG,43.9899,-70.9501
KEWN,35.0684,-77.0478
KROC,43.1172,-77.6754
KMGJ,41.5091,-74.2645
KFWA,40.9725,-85.2064
KSJN,34.5184,-109.3801
KINT,36.1335,-80.2244
KSBN,41.7072,-86.3163
KISW,44.3591,-89.837
KMRY,36.5904,-121.8488
KPLN,45.5644,-84.7929
KBTV,44.4682,-73.1499
KILN,39.4308,-83.777
KLEX,38.0339,-84.6114
KPNE,40.0789,-75.0133
KINL,48.5594,-93.3955
KAAO,37.7497,-97.2191
KCAR,46.8705,-68.0172
PHOG,20.8887,-156.4345
KNAK,38.9913,-76.4891
KC99,39.869,-105.5534
KMOT,48.252,-101.269
PAHN,59.243,-135.511
KHWD,37.6589,-122.1212
KGSO,36.0969,-79.9432
KGED,38.6898,-75.3625
KOLM,46.9737,-122.9049
KGCN,35.9458,-112.1554
KLNK,40.8478,-96.7647
KDUB,43.5485,-109.6839
KLWT,47.0544,-109.4565
KSUS,38.6575,-90.6557
KLAF,40.4124,-86.9474
KIPT,41.243,-76.9217
KAPC,38.2075,-122.2804
KOLS,31.4208,-110.8465
KSET,38.9304,-90.4329
KUZA,34.9836,-81.0562
KLWM,42.7125,-71.1256
KJST,40.3149,-78.8307
KRST,43.904,-92.4921
KCOU,38.8171,-92.2148
K12N,41.0093,-74.7363
KRBL,40.1519,-122.2548
KN60,47.654,-101.436
KRKS,41.5947,-109.0529
KBUY,36.0475,-79.4737
KBWI,39.1733,-76.684
KPHF,37.1322,-76.494
KMFI,44.6379,-90.1875
KEVV,38.0502,-87.5147
KFIG,41.0465,-78.4112
KTQE,41.763,-96.1797
KPIA,40.6675,-89.6842
KIMT,45.8134,-88.1129
KBFL,35.4342,-119.0552
KACY,39.452,-74.567
KMTP,41.073,-71.9235
KVTA,40.0264,-82.4635
KCEU,34.6722,-82.8814
KTAD,37.2618,-104.3319
KVSF,43.3421,-72.5213
KDEC,39.8308,-88.8719
KORH,42.2706,-71.8731
KSYR,43.1111,-76.1038
KAKH,35.1968,-81.1555
KPSF,42.4269,-73.2891
PHMK,21.1545,-157.0961
KUIN,39.9371,-91.1966
KEUG,44.1331,-123.2156
KECG,36.2572,-76.1716
KVAY,39.9408,-74.8407
KDSV,42.5699,-77.7143
KDDH,42.8935,-73.2488
KBOS,42.3606,-71.0097
KPHL,39.8733,-75.2268
KWLD,37.1649,-97.0349
KJAN,32.3198,-90.0778
K1V4,44.42,-72.019
KAVP,41.3335,-75.7227
KOXI,41.3275,-86.665
KMEM,35.0564,-89.9864
KBUF,42.94,-78.7361
KAUW,44.9265,-89.6248
KRDG,40.3734,-75.9592
KCRW,38.3795,-81.5911
KSBY,38.3409,-75.5132
KCOS,38.8095,-104.6887
KALO,42.5544,-92.4013
KAKR,41.0373,-81.4634
KFZY,43.3504,-76.3832
KDSM,41.5339,-93.6531
KRFD,42.1915,-89.0876
KAKQ,36.9827,-77.0014
KFLO,34.1877,-79.7308
TISX,17.6997,-64.8126
TJNR,18.253,-65.638
KPBF,34.1798,-91.9344
KPNS,30.478,-87.1869
KPIH,42.9197,-112.5723
KMAF,31.9475,-102.2086
KEYW,24.5571,-81.7554
KCSM,35.3568,-99.2041
KGVL,34.2721,-83.8304
KHBG,31.2648,-89.2561
KLVJ,29.5192,-95.2423
KLXT,38.9577,-94.3712
KMFE,26.1791,-98.2445
KMLP,47.4548,-115.6711
KMOD,37.6254,-120.9549
KOMK,48.4611,-119.5209
PHJR,21.312,-158.07
KCCR,37.9916,-122.0527
KDMO,38.712,-93.1747
KEET,33.1784,-86.7818
KCDW,40.8764,-74.2828
KDEN,39.8466,-104.6562
TIST,18.3362,-64.9799
KDRA,36.621,-116.029
KCQC,35.003,-105.6628
KOQT,36.023,-84.2336
KDMH,39.281,-76.611
KMWT,34.5466,-93.5779
KCDR,42.8374,-103.0981
KCUT,43.7331,-103.6151
KDAL,32.8384,-96.8358
KAAF,29.7268,-85.0248
KBIL,45.8072,-108.5462
KHSV,34.6441,-86.7862
KRQE,35.6571,-109.0603
PABT,66.9176,-151.5189
PAJN,58.354,-134.5561
PAMC,62.957,-155.61
PANN,64.547,-149.087
PHTO,19.7191,-155.049
KLND,42.8154,-108.726
KSTC,45.5442,-94.0516
KCHA,35.0336,-85.2004
KDRT,29.3784,-100.927
KGSH,41.5265,-85.7872
KGTF,47.4733,-111.3828
KGZH,31.4191,-87.0484
KHAO,39.3612,-84.5206
KHGR,39.7062,-77.7304
KHKA,35.9378,-89.8332
KHKS,32.3376,-90.2214
KHLG,40.1699,-80.6441
KHRO,36.2673,-93.1566
KMSL,34.7439,-87.5997
KMSS,44.9334,-74.8484
KIXD,38.8221,-94.8902
KLBF,41.122,-100.6689
KLCH,30.1255,-93.2277
KLFK,31.2359,-94.7546
KLFT,30.1986,-91.9896
KLOL,40.0684,-118.5702
KSFF,47.6857,-117.3214
KSHN,47.2384,-123.1415
KSIY,41.7737,-122.4683
KSLN,38.78,-97.6446
KSTJ,39.7683,-94.9095
KTIW,47.2674,-122.5762
KTVL,38.8984,-119.9962
PASC,70.191,-148.48
KAEX,31.3346,-92.5585
KALI,27.7413,-98.0251
KAMW,41.9905,-93.6185
KANB,33.5904,-85.8479
KASD,30.3436,-89.8224
KASX,46.5468,-90.9184
KBFM,30.6147,-88.063
KBHM,33.5655,-86.7449
KHIB,47.3804,-92.8325
KHOU,29.6458,-95.2821
KHSI,40.6002,-98.4264
KAPF,26.155,-81.7751
KAZO,42.2283,-85.546
KBCE,37.7013,-112.149
KBIV,42.7463,-86.0968
KBNA,36.1105,-86.6881
KDEQ,34.048,-94.4016
KDGW,42.796,-105.38
KDRO,37.1431,-107.7602
KDUJ,41.1795,-78.8933
KDVT,33.6902,-112.0662
KDXR,41.3721,-73.4834
KELM,42.1601,-76.89
KUUU,41.5299,-71.2833
KWRL,43.9654,-107.9502
PASO,59.443,-151.702
PATO,60.783,-148.843
PAMR,61.215,-149.85
KLAN,42.7761,-84.5997
KPGA,36.9211,-111.4487
KBFF,41.8747,-103.6011
KFNT,42.9669,-83.75
KCLL,30.5912,-96.3631
KHTL,44.359,-84.6739
KPGD,26.9185,-81.9939
KPDX,45.5958,-122.6092
KRTN,36.7418,-104.5076
KBNO,43.5949,-118.9579
KFAT,36.78,-119.7202
KP68,39.602,-116.006
KFNB,40.0791,-95.5893
KLWD,40.6306,-93.9005
KODX,41.6234,-98.9489
KFDR,34.3531,-98.9876
KHWO,25.9996,-80.2412
KIDA,43.5204,-112.0675
KILM,34.2668,-77.8999
KMPO,41.1368,-75.3771
KEEO,40.0444,-107.8884
KGGG,32.3909,-94.714
KLAA,38.0718,-102.6875
KIML,40.5106,-101.6243
KFTW,32.8248,-97.364
KEYE,39.8248,-86.2958
KSMQ,40.6241,-74.669
KAOH,40.7081,-84.0214
KFLD,43.7695,-88.4907
KBOI,43.567,-116.2406
KBUR,34.1996,-118.3654
KCDS,34.4275,-100.2839
KCHO,38.1374,-78.4551
KCRS,32.0316,-96.3994
KDCU,34.658,-86.9434
KACK,41.2541,-70.0589
KEMP,38.3291,-96.1945
KUIL,47.937,-124.5576
KPOF,36.7697,-90.3224
KTCS,33.2369,-107.2685
KMFR,42.375,-122.877
KOAK,37.7178,-122.233
KPRB,35.6694,-120.6292
KPSC,46.2695,-119.1182
KCPS,38.57,-90.156
KLAR,41.3165,-105.6729
KLOU,38.2302,-85.6629
KMCK,40.204,-100.5904
KMDW,41.7841,-87.7552
KMSN,43.1407,-89.3452
KPAH,37.0652,-88.7793
KPUB,38.2887,-104.5057
KRWL,41.8065,-107.1952
KLEB,43.6271,-72.3054
KAFW,32.99,-97.32
KRIL,39.5279,-107.7197
KHUF,39.4429,-87.3221
KMYR,33.6769,-78.9325
KTUL,36.1985,-95.8782
KBVO,36.7664,-96.013
KESF,31.3963,-92.2828
KPQL,30.463,-88.5316
KPUC,39.6089,-110.7555
KBBW,41.4365,-99.6385
PAAQ,61.5951,-149.0917
PACV,60.486,-145.4445
PAEN,60.579,-151.242
PAGY,59.457,-135.322
PAIL,59.7492,-154.9091
KRVS,36.0424,-95.9901
PAKW,55.582,-133.075
PAOM,64.5111,-165.4401
PHLI,21.9805,-159.3386
KPKB,39.3395,-81.4438
KPOU,41.6257,-73.8816
KAGC,40.3551,-79.9215
KAGS,33.3652,-81.9635
KBKL,41.5173,-81.6832
KHKY,35.742,-81.3822
KDNL,33.4668,-82.0385
KTOP,39.0725,-95.626
KLKV,42.1538,-120.4027
KBKE,44.843,-117.8099
KBPT,29.9521,-94.0262
KHIO,45.5476,-122.9557
KPIL,26.1597,-97.3378
KRXE,43.8321,-111.8075
KSMF,38.7007,-121.5948
KSSF,29.339,-98.472
KPMD,34.6294,-118.0831
KBLI,48.7991,-122.5407
KMCW,43.1543,-93.3262
KRSL,38.8725,-98.8093
KMCI,39.2975,-94.7309
KVCB,38.3775,-121.9585
KCPR,42.8978,-106.4736
KDBQ,42.3984,-90.7091
KAIA,42.0573,-102.8017
KCLM,48.1219,-123.5066
KCXO,30.3611,-95.4176
KDAN,36.5729,-79.335
KAOO,40.2999,-78.3168
KBFD,41.7984,-78.6354
KGPT,30.4121,-89.0809
KMCB,31.1823,-90.4721
KMGM,32.2997,-86.4074
KPDT,45.6975,-118.8345
KVUO,45.621,-122.6542
KNEW,30.0494,-90.029
KTYS,35.818,-83.9857
KBMQ,30.7407,-98.2354
KLNS,40.1206,-76.2944
KONO,44.0142,-117.0081
KLUK,39.106,-84.4161
KDHT,36.0252,-102.5487
KDMN,32.2592,-107.7206
KADG,41.8678,-84.0794
KFMY,26.584,-81.8615
KATY,44.9045,-97.1496
KGFL,43.3385,-73.6102
KMTN,39.3214,-76.4065
KCIC,39.7987,-121.858
KELN,47.0338,-120.5314
KPAE,47.9232,-122.2831
KSJC,37.3594,-121.9244
KIAH,29.9844,-95.3607
PAOT,66.886,-162.607
KAUS,30.2098,-97.6806
KPSP,33.8222,-116.5043
KGGW,48.2142,-106.6214
PABR,71.2837,-156.7843
KGEG,47.6217,-117.528
KELY,39.2954,-114.8466
KGRB,44.4796,-88.137
KTRI,36.4797,-82.3989
KTOI,31.8574,-86.0103
KPTK,42.6632,-83.41
KMBS,43.5281,-84.0813
KMIC,45.0623,-93.3511
KMTO,39.4744,-88.2724
KOTM,41.1008,-92.4445
KBRO,25.9146,-97.4231
KCEZ,37.3071,-108.6265
KMHE,43.7743,-98.0384
KSHR,44.7603,-106.9741
KSNY,41.0993,-102.9864
KSPG,27.7685,-82.6257
KSRQ,27.4015,-82.5597
KTCC,35.1805,-103.6014
KTHV,39.9194,-76.8769
KTKI,33.1828,-96.5899
KTLH,30.3935,-84.3513
KTOR,42.0613,-104.1585
KTPA,27.9633,-82.54
KTRL,32.7131,-96.2687
KTTN,40.2768,-74.8159
KTUP,34.2622,-88.7713
KTVR,32.3481,-91.0299
KTXK,33.456,-93.9878
KTYR,32.3587,-95.404
KVEL,40.4429,-109.5128
KVGT,36.212,-115.194
KVLD,30.7763,-83.2739
KVRB,27.6553,-80.4142
KNSI,33.2338,-119.4559
KMGW,39.6498,-79.9206
KMGY,39.5918,-84.2263
KMHT,42.9245,-71.4377
KMIA,25.7881,-80.3169
KMIW,42.1106,-92.9163
KMKL,35.5933,-88.917
KMLB,28.0997,-80.6356
KMLC,34.8824,-95.7815
KMLU,32.5155,-92.0299
KMMK,41.5097,-72.8278
KMNN,40.6158,-83.0673
KMRB,39.4037,-77.975
KMSO,46.9208,-114.0938
KMTH,24.7263,-81.0477
KMVY,41.393,-70.6159
KMWL,32.7816,-98.0602
KODO,31.925,-102.3874
KOGB,33.4637,-80.8534
KOGD,41.1941,-112.0168
KONT,34.0531,-117.5769
KOPF,25.9102,-80.2828
KORL,28.5465,-81.3354
KOSH,43.9669,-88.5582
KOSU,40.0784,-83.0782
KOVS,43.1561,-90.6775
KOWD,42.1912,-71.1732
KPBG,44.6392,-73.4631
KPBI,26.6851,-80.0992
KPIE,27.9126,-82.6856
KPMP,26.2464,-80.111
KPWA,35.5411,-97.6472
KRAC,42.7586,-87.8178
KRIW,43.0622,-108.4471
KRSW,26.538,-81.7567
KRUE,35.2573,-93.095
KSAF,35.611,-106.0957
KSBA,34.4241,-119.8425
KSBM,43.7748,-87.849
KSEG,40.8193,-76.8658
KSFB,28.7795,-81.2435
KBTL,42.3119,-85.2415
KBTM,45.9644,-112.5015
KBVY,42.5841,-70.9153
KBYG,44.3812,-106.7195
KCEW,30.7771,-86.5194
KCMI,40.0324,-88.2755
KCNM,32.3336,-104.2584
KCRG,30.3371,-81.5128
KHUL,46.1185,-67.7929
KHVN,41.259,-72.8891
KIPL,32.8346,-115.5766
KJKL,37.5913,-83.3137
KLAW,34.5577,-98.4172
KLBB,33.6658,-101.8233
KLEE,28.8214,-81.8006
KLGB,33.8118,-118.1472
KLHQ,39.7572,-82.6633
KLIT,34.7273,-92.2358
KLLQ,33.636,-91.7555
KLWV,38.7604,-87.599
KLXV,39.228,-106.3162
KMCO,28.4182,-81.3241
KDFW,32.8974,-97.022
KDHN,31.3177,-85.4432
KDTN,32.5429,-93.745
KDTO,33.2088,-97.1992
KEVW,41.2727,-111.0305
KFAY,34.9895,-78.88
KFLL,26.0787,-80.1622
KFMN,36.7435,-108.2293
KFOK,40.8505,-72.6193
KFPR,27.4981,-80.3763
KFRG,40.7344,-73.4164
KFSM,35.3335,-94.3653
KFST,30.9119,-102.9171
KFUL,33.8715,-117.9856
KFWN,41.1993,-74.6259
KGEZ,39.5855,-85.7998
KGIF,28.0614,-81.7568
KGJT,39.1344,-108.5408
KGKY,32.6583,-97.0951
KGLH,33.4772,-90.9847
KGNV,29.6917,-82.276
KGOK,35.8517,-97.4142
KGRR,42.8821,-85.523
KGWO,33.4961,-90.0894
KHBR,34.9891,-99.0528
KHLN,46.6045,-111.9892
KAKO,40.1743,-103.2146
KAMA,35.2203,-101.7173
KAMG,31.5401,-82.5074
KAPA,39.5599,-104.8484
KAUG,44.3161,-69.797
KAWM,35.1401,-90.2359
KBAF,42.16,-72.7124
KBGM,42.2068,-75.9799
KBKV,28.4739,-82.4537
KBMG,39.1431,-86.6168
KBPK,36.3706,-92.4719
PACD,55.2207,-162.7323
PADQ,57.7507,-152.4881
PAEG,64.7761,-141.1635
PAFA,64.8031,-147.8761
PAKT,55.3592,-131.7219
PAKV,64.321,-158.732
PALH,61.179,-149.962
PANC,61.1691,-150.0277
PAQT,70.213,-150.994
PAVL,67.731,-164.548
PAYA,59.512,-139.671
KLVK,37.6931,-121.8149
KLVM,45.6984,-110.4415
KMAE,36.9851,-120.1107
KUAO,45.2466,-122.7709
KUNO,36.8791,-91.9052
KVIH,38.1318,-91.7647
KYKM,46.564,-120.5349
KEPH,47.3078,-119.5155
KEQY,35.0147,-80.6242
KFAR,46.9242,-96.8119
KFCM,44.8321,-93.4705
KFDY,41.0137,-83.6681
KFHR,48.52,-123.0264
KFOE,38.9414,-95.6513
KFTY,33.7776,-84.5246
KGEY,44.5174,-108.0752
KGKJ,41.6258,-80.2123
KGLD,39.3673,-101.6932
KGMU,34.8487,-82.35
KGRI,40.9615,-98.313
KGUY,36.6819,-101.5052
KSDM,32.5758,-116.9939
KSEA,47.4447,-122.3144
KSGR,29.6197,-95.6575
KSNS,36.6635,-121.6093
KSPW,43.1682,-95.2101
KSTP,44.9323,-93.0559
KSTS,38.5037,-122.811
KSWO,36.1624,-97.0832
KTTD,45.551,-122.4098
KABR,45.4436,-98.4138
KAXN,45.868,-95.394
KBDE,48.7261,-94.6122
KPDK,33.8783,-84.298
KRAL,33.9528,-117.4352
KRBG,43.2337,-123.3578
KRDD,40.5146,-122.2977
KRWI,35.8502,-77.8951
KCGI,37.2254,-89.5785
KHJO,36.3114,-119.6232
KHYR,46.0303,-91.4427
KICR,43.391,-99.8462
KICT,37.6475,-97.43
KJLN,37.1522,-94.4952
KLBX,29.1154,-95.4632
KOVE,39.4943,-121.6225
KCAG,40.493,-107.524
KTUS,32.1315,-110.9564
KRBD,32.6782,-96.8677
KRNM,33.038,-116.916
KGUP,35.5086,-108.7932
KPHD,40.4703,-81.4218
KPIR,44.3819,-100.2864
KPKD,46.8971,-95.0695
KPNC,36.7369,-97.1024
KPRC,34.6491,-112.4223
KPSX,28.7248,-96.2535
KRHI,45.6315,-89.4822
KRKP,28.0837,-97.0467
KRMG,34.3483,-85.1616
KRWF,44.5483,-95.0804
KSAC,38.5066,-121.496
KNQX,24.5801,-81.6829
KBCT,26.379,-80.106
PABI,63.9931,-145.7214
KBPI,42.578,-110.1098
KRNT,47.4951,-122.2144
KTWF,42.4785,-114.4775
KGFK,47.9428,-97.1829
KGLR,45.0166,-84.6894
KPEO,42.6441,-77.0528
KALW,46.0946,-118.2857
KPUW,46.7438,-117.1158
KTCL,33.2122,-87.6155
KTDZ,41.5633,-83.4767
KTVC,44.739,-85.5694
KBRD,46.4021,-94.1273
KBTR,30.5378,-91.1468
KCMX,47.1705,-88.4854
KCNY,38.7501,-109.7627
KCSV,35.951,-85.0814
KDET,42.4072,-83.009
KDEW,47.9742,-117.4292
KMCE,37.286,-120.5179
KMCN,32.6889,-83.6529
KMLS,46.4265,-105.8834
KSAV,32.1313,-81.2023
PHNL,21.315,-157.924
KMSP,44.8852,-93.2313
KMSY,29.9974,-90.2777
KMYV,39.102,-121.5688
KOJC,38.85,-94.7395
KUTS,30.7443,-95.5866
KWVI,36.9394,-121.79
KZZV,39.9461,-81.8932
KHQM,46.9729,-123.9308
KHRI,45.8259,-119.2612
KHVR,48.5425,-109.7644
KJEF,38.5945,-92.1567
KLAX,33.9382,-118.3866
KLMT,42.147,-121.7255
KLPR,41.3463,-82.1788
KLSE,43.8792,-91.253
KSNA,33.6798,-117.8675
KSPB,45.7691,-122.8637
KNUI,38.152,-76.432
KTMB,25.6423,-80.4347
KWST,41.3509,-71.8055
PATK,62.319,-150.097
PAWD,60.129,-149.418
PAOR,62.962,-141.938
KFFT,38.1846,-84.9039
KITR,39.2415,-102.2819
KJBR,35.8357,-90.6442
KJER,42.7274,-114.4547
KLOZ,37.0896,-84.0688
KMAI,30.837,-85.1835
KUNV,40.8534,-77.8401
KBWG,36.9647,-86.4238
KBYI,42.5453,-113.7686
KCDC,37.7067,-113.097
KCRE,33.8162,-78.7204
KCUB,33.972,-80.9938
KCYS,41.1579,-104.8081
KABY,31.5364,-84.1958
KASE,39.2299,-106.8705
KBEH,42.129,-86.4152
KDTS,30.3933,-86.4674
KECP,30.3487,-85.7883
KELD,33.2207,-92.814
KEWB,41.6791,-70.9591
KNIP,30.2346,-81.6746
PHKO,19.7378,-156.048
KBFI,47.5455,-122.3148
KDTW,42.2311,-83.3312
KDWH,30.068,-95.5563
KFFC,33.3543,-84.5689
KGSP,34.8842,-82.2209
KGCC,44.3398,-105.5416
KHFD,41.7352,-72.6512
KMIE,40.2345,-85.3936
KMKO,35.6576,-95.3658
KMTJ,38.5054,-107.8981
KMYF,32.8145,-117.1375
KNRS,32.563,-117.1109
KHOT,34.4755,-93.1041
KDAB,29.1735,-81.0719
KENW,42.5953,-87.9383
KCNO,33.9756,-117.6249
KSDL,33.6123,-111.9232
KNUW,48.355,-122.664
KWDG,36.3781,-97.7888
KHLC,39.3741,-99.8299
KGAG,36.2966,-99.7686
KDLN,45.2584,-112.5546
KLVS,35.6558,-105.1385
KHEI,46.0108,-102.6518
KHZY,41.7794,-80.6968
KYIP,42.242,-83.5214
KCOT,28.4585,-99.2228
KARB,42.2239,-83.7398
KBRL,40.7729,-91.1255
KCKB,39.3022,-80.2239
KDFI,41.3357,-84.4285
KDKK,42.4932,-79.2762
KARA,30.0292,-91.8845
KMLI,41.4482,-90.5237
KIEN,43.0262,-102.52
KCLT,35.2225,-80.9543
KTOL,41.587,-83.8054
K5SM,39.426,-107.38
KBAN,38.355,-119.522
KDDC,37.7711,-99.9692
KCFV,37.0912,-95.5726
KJYM,41.9197,-84.5853
KLWC,39.0078,-95.2115
KPYM,41.9085,-70.7278
KMDH,37.7833,-89.2453
KNRB,30.396,-81.423
KMKE,42.9549,-87.9045
KARR,41.7713,-88.4815
KMEB,34.7913,-79.3683
KOMA,41.3119,-95.9018
KBLH,33.6188,-114.7145
KMLF,38.4225,-113.0109
KMHK,39.1346,-96.6789
KOKC,35.3843,-97.6003
KPPF,37.3281,-95.5045
KSGF,37.2398,-93.3899
KAQW,42.6973,-73.1696
KMBG,45.543,-100.404
KDCA,38.8472,-77.0345
KPWK,42.1208,-87.9048
KAFN,42.8067,-72.0013
KCID,41.8829,-91.7246
KSPS,33.9785,-98.493
KALS,37.4393,-105.8618
PKMR,7.09,171.383
KCKV,36.6169,-87.4117
KCQX,41.6878,-69.9932
KNFG,33.304,-117.355
KTRM,33.6317,-116.1641
KABI,32.4106,-99.6821
KRAP,44.0458,-103.0544
KSPI,39.8453,-89.684
KNZY,32.6922,-117.2098
KTAN,41.8756,-71.0208
KBLF,37.2978,-81.2036
KABQ,35.0419,-106.6154
KBIS,46.7823,-100.7575
KNHK,38.284,-76.408
KDPA,41.8964,-88.2512
KCNU,37.6705,-95.4846
KGLS,29.2704,-94.8642
PATA,65.173,-152.107
KVTN,42.8585,-100.5514
KSUX,42.3917,-96.3795
KIJD,41.7425,-72.1825
KBLU,39.2762,-120.7093
KDVN,41.6133,-90.5948
KEST,43.4008,-94.7476
KATL,33.6297,-84.4422
KMWH,47.193,-119.3146
KP69,46.144,-115.597
KFIT,42.5549,-71.757
KCVG,39.0444,-84.6724
KNFW,32.781,-97.436
KREO,42.5902,-117.8646
KHIE,44.3659,-71.5522
KHRL,26.2303,-97.6556
KMFD,40.8204,-82.5177
KORE,42.57,-72.287
KIOW,41.6394,-91.5446
KBDR,41.1642,-73.1266
KHUT,38.0682,-97.8607
KIAD,38.9348,-77.4473
KSLK,44.3928,-74.2029
KSDB,34.7433,-118.7252
MMSP,22.256,-100.93
KSMX,34.894,-120.4522
KSNT,44.1708,-114.9269
KMYL,44.8943,-116.0998
KBHK,46.352,-104.2613
KHDO,29.3601,-99.1742
KLGU,41.7865,-111.8519
KPHX,33.4278,-112.0037
KSJT,31.3517,-100.4948
KOXR,34.2001,-119.2042
KORF,36.9037,-76.1927
KILG,39.6744,-75.6057
KRDU,35.8923,-78.782
KNYC,40.779,-73.9692
K6R6,30.0482,-102.2127
KCDJ,39.8198,-93.577
KBDL,41.9374,-72.682
KBED,42.4681,-71.2946
KAHN,33.9477,-83.3274
KALB,42.7473,-73.7991
KCMH,39.9907,-82.877
KSTL,38.7525,-90.3734
KSAN,32.7364,-117.1973
KDAW,43.2794,-70.9243
KTPL,31.157,-97.4094
KERI,42.0803,-80.1824
KCON,43.2049,-71.5026
KJFK,40.6392,-73.7639
KSAT,29.5443,-98.4839
KVCT,28.8624,-96.9301
KAVX,33.4042,-118.4146
KEWR,40.6828,-74.1692
KBAZ,29.7089,-98.0459
KPWM,43.6424,-70.3044
KMPV,44.205,-72.5654
KCAK,40.9181,-81.4434
KUGN,42.4255,-87.8634
KCLE,41.4057,-81.8519
KCSG,32.5163,-84.9422
KBKW,37.7836,-81.1228
KLGA,40.7794,-73.8803
KORD,41.9602,-87.9316
KPIT,40.4814,-80.2083
KHSE,35.2324,-75.6223
KTEB,40.859,-74.0562
KHTS,38.3653,-82.5548
KPVD,41.7225,-71.4325
KJCT,30.5105,-99.7665
KNJM,34.694,-77.029
KVNY,34.2121,-118.4915
MUGM,19.909,-75.206
KEKN,38.8899,-79.8554
KATT,30.3208,-97.7604
KYNG,41.2548,-80.6736
KIGM,35.2575,-113.9341
KCRP,27.7734,-97.513
KLPC,34.6647,-120.4642
KELP,31.8123,-106.3774
KSAD,32.8565,-109.636
KBGD,35.695,-101.3955
KP59,47.467,-87.875
KXWA,48.2542,-103.7469
KOCF,29.1636,-82.221
KROW,33.3074,-104.5082
EDNY,47.671,9.511
EDLW,51.518,7.612
EDLP,51.614,8.616
EDGS,50.708,8.083
EDBC,51.856,11.42
LIPX,45.387,10.872
LIPR,44.02,12.612
LIPH,45.648,12.194
LIPE,44.531,11.297
LICJ,38.176,13.091
LICC,37.467,15.064
LIBR,40.658,17.951
LIBD,41.138,16.765
ENNA,70.059,24.971
ENFL,61.582,5.02
ENBL,61.391,5.76
ENAT,69.978,23.358
ENUN,-99.99,-99.99
ENSL,58.367,1.907
ENSF,61.25,1.85
ENLE,56.535,3.205
ENJS,58.835,2.545
ENRA,66.364,14.302
ENBV,70.871,29.032
ENBN,65.458,12.216
ENVD,70.065,29.835
ENST,65.961,12.472
ENSK,68.58,15.029
ENRS,67.527,12.104
ENRM,64.835,11.141
ENMS,65.784,13.218
LGIO,39.696,20.823
LGEL,38.064,23.556
LGAL,40.856,25.945
LGSO,37.422,24.95
LGKP,35.421,27.146
LGBL,39.22,22.794
EDWE,53.388,7.229
EDFH,49.946,7.265
ENNM,64.471,11.57
ENMH,71.029,27.829
ENLK,68.155,13.615
ENHV,71.009,25.982
ENHK,70.487,22.14
ENBS,70.601,29.698
LGTS,40.52,22.971
LGSA,35.54,24.141
LGLM,39.917,25.236
LGKL,37.068,22.026
ENSR,69.789,20.955
ENSD,61.829,6.104
KRYY,34.0146,-84.5964
LIPO,45.429,10.331
LICG,36.814,11.971
LSZB,46.914,7.497
LICD,35.498,12.618
LICB,36.994,14.606
ENWV,56.278,3.395
ENUG,71.305,22.253
LSZH,47.48,8.536
LSGG,46.248,6.128
LSZA,46.004,8.91
ENSE,61.45,2.15
ENQR,61.53,2.22
ENQC,60.886,3.61
EKKA,56.293,9.114
LSGC,47.083,6.792
ENQA,60.645,3.725
LSGS,46.219,7.33
LSZG,47.179,7.415
LSZR,47.485,9.561
LSZS,46.526,9.879
LSZC,46.972,8.392
LSZL,46.164,8.878
ENLA,57.111,2.846
LOWI,47.26,11.344
KGYY,41.6121,-87.4091
LOWS,47.789,13.009
LOWL,48.233,14.188
LIRQ,43.81,11.205
LIRN,40.885,14.292
LIRF,41.8,12.239
LIRA,41.808,12.585
LIML,45.461,9.263
LIMJ,44.413,8.838
KT41,29.6709,-95.0644
KOLV,34.9808,-89.7851
LIMF,45.203,7.649
KSZT,48.2945,-116.5675
LIME,45.674,9.704
LIMC,45.631,8.728
LIEO,40.899,9.518
LIEE,39.243,9.06
LIEA,40.631,8.289
ESND,62.047,14.416
KTMT,39.4643,-117.1972
ESUP,67.246,23.069
ESST,60.158,12.992
ESNV,64.579,16.839
ESNL,64.552,18.711
ESKM,60.96,14.507
LIRZ,43.097,12.51
LIPY,43.617,13.36
LIMZ,44.547,7.623
EKVJ,55.991,8.354
EKOD,55.475,10.331
LICR,38.072,15.654
EKYT,57.093,9.879
LICA,38.908,16.242
EKRN,55.068,14.749
LIBP,42.432,14.181
PTTP,6.96,158.21
EDXW,54.913,8.341
EKEB,55.528,8.563
EKBI,55.74,9.152
EDAH,53.879,14.152
EKAH,56.3,10.619
LXGB,36.151,-5.35
ELLX,49.626,6.204
EBOS,51.199,2.862
BGGH,64.191,-51.677
EBLG,50.637,5.443
EBCI,50.459,4.454
EBBR,50.896,4.526
EDAC,50.982,12.506
LTCI,38.469,43.337
ENOL,63.703,9.609
EGXE,54.297,-1.533
LTCF,40.562,43.115
EGXC,53.094,-0.173
EGVP,51.139,-1.569
EGVO,51.239,-0.945
LTCD,39.71,39.527
EGUW,52.124,0.957
LTBY,39.81,30.519
EGVN,51.758,-1.578
EGUB,51.62,-1.099
EGQM,55.421,-1.601
EGKB,51.33,0.033
EGQK,57.646,-3.563
LTAR,39.798,36.894
EGQA,57.825,-3.955
EGOV,53.252,-4.536
EGOP,51.714,-4.367
PTRO,7.367,134.544
EGDY,51.006,-2.643
EGDR,50.084,-5.257
EGWU,51.549,-0.417
EGDM,51.153,-1.75
KJTC,34.1292,-109.309
KOCW,35.5703,-77.05
KMPZ,40.9453,-91.5122
KJES,31.5521,-81.8896
KDED,29.075,-81.286
KCQB,35.7223,-96.8187
KBQP,32.7583,-91.8793
KACZ,34.718,-78.005
LTCB,40.967,38.081
EEEI,59.26,24.209
EYPA,55.973,21.092
K2J5,32.8914,-81.9664
K19S,37.496,-100.834
EVGA,56.778,24.854
PTKK,7.462,151.843
EGGW,51.875,-0.368
EGPO,58.215,-6.329
KS21,43.8801,-121.4536
EETN,59.413,24.801
LWSK,41.952,21.627
PGRO,14.172,145.24
LTCA,38.607,39.291
KLAL,27.9866,-82.0193
KJAU,36.3351,-84.1635
EGPL,57.475,-7.364
LCEN,35.155,33.496
LTBS,36.713,28.793
LTAI,36.9,30.798
LTCJ,37.93,41.117
EGPE,57.538,-4.053
LTCC,37.894,40.201
LTAU,38.77,35.495
KM54,36.1932,-86.314
LTAT,38.435,38.092
LTBJ,38.285,27.155
KEKS,45.276,-111.65
KHSA,30.3765,-89.4554
LTBA,40.982,28.821
LTCG,40.995,39.782
EDVK,51.421,9.388
EDDB,52.3807,13.5306
LTCE,39.956,41.17
KLBE,40.2767,-79.4039
EBAW,51.189,4.46
LTBU,41.139,27.919
KNUQ,37.4059,-122.0491
KALN,38.8897,-90.0316
KSUN,43.4969,-114.2923
EGPC,58.459,-3.093
LTCS,37.445,38.904
EGSS,51.881,0.223
LTFC,37.855,30.368
LTFG,36.299,32.3
LTFJ,40.899,29.309
LTFM,41.262,28.74
EVVA,57.361,21.545
KPVE,35.6592,-88.1929
EVLA,56.517,21.097
LTDB,36.8939,35.07
KMRC,35.5579,-87.1778
EGYP,-51.82,-58.448
LTFD,39.559,27.025
LTAF,36.989,35.293
LTCN,37.539,36.953
LTDA,36.361,36.283
LTAY,37.785,29.701
LTBQ,40.735,30.083
LCRA,34.59,32.988
KOJA,35.5484,-98.6702
LTCT,39.977,43.878
LTBF,39.619,27.926
EGPK,55.509,-4.587
EGPF,55.867,-4.433
EGKK,51.148,-0.19
EGBB,52.46,-1.758
EFTP,61.419,23.616
EFTU,60.514,22.263
EFVA,63.051,21.762
EFOU,64.93,25.355
EFRO,66.562,25.829
EFMA,60.125,19.903
EFIV,68.607,27.405
ENAN,69.307,16.131
ENBO,67.267,14.359
ENBR,60.29,5.222
ENDU,69.058,18.544
ENGM,60.201,11.08
ENVA,63.46,10.931
ENZV,58.884,5.637
ENAL,62.562,6.115
ENCN,58.2,8.077
ENHD,59.341,5.22
ENRO,62.578,11.342
ENRY,59.381,10.783
ENSB,78.246,15.466
ENTC,69.675,18.916
ENTO,59.184,10.255
EYVI,54.634,25.286
ETNG,50.964,6.032
PTPN,6.986,158.21
EEKA,58.991,22.831
EGPH,55.952,-3.36
EEKE,58.23,22.509
LOWK,46.648,14.318
EETU,58.307,26.691
EEPU,58.419,24.473
EDVE,52.319,10.558
EDTL,48.369,7.828
EDMO,48.081,11.283
EDJA,47.989,10.239
EDHK,54.376,10.143
EDQM,50.289,11.86
LTCW,37.55,44.238
LTCR,37.232,40.638
LGRP,36.405,28.086
LGKR,39.61,19.913
LGIR,35.337,25.173
LGAV,37.936,23.945
KJQF,35.3896,-80.7074
KSEM,32.3367,-86.9836
EGCC,53.354,-2.275
EGPD,57.205,-2.205
EGPB,59.88,-1.296
EGPA,58.958,-2.905
EGNS,54.085,-4.632
EGAC,54.614,-5.873
ENFB,61.206,1.829
ENKR,69.725,29.898
EGAA,54.654,-6.225
EGJJ,49.21,-2.194
EGJB,49.433,-2.598
EGGD,51.383,-2.719
EGFF,51.397,-3.343
LOWG,46.997,15.447
ESCM,59.899,17.589
LOWW,48.117,16.582
ESIA,58.514,14.507
EKCH,55.618,12.656
EKRK,55.587,12.136
ESSL,58.406,15.681
EKSB,54.962,9.787
ESPE,65.875,20.144
EKSP,55.225,9.263
EKVD,55.436,9.329
EFJY,62.404,25.675
EFKU,63.008,27.799
ESPA,65.541,22.126
ESMV,57.29,14.134
EFHA,61.855,24.805
EDLN,51.23,6.504
EFKK,63.721,23.143
ESIB,58.431,12.71
EDMA,48.425,10.932
EDTY,49.118,9.784
ESDF,56.266,15.267
EFPO,61.462,21.8
EFJO,62.66,29.611
EDDM,48.348,11.813
ESCF,58.398,15.526
EFLP,61.044,28.151
EDFM,49.474,8.515
ESKS,61.165,12.834
EFMI,61.687,27.201
ESOH,60.02,13.579
EDHI,53.536,9.837
EFSA,61.943,28.945
ESSV,57.662,18.348
EFSI,62.693,22.83
ESSP,58.584,16.255
EFUT,60.896,26.938
EFET,68.363,23.424
EFKE,65.784,24.579
EFKI,64.283,27.673
EDHL,53.805,10.719
EFKS,65.992,29.236
ESSD,60.422,15.515
EFKT,67.701,24.847
ESSB,59.356,17.933
ESOW,59.595,16.638
LIPZ,45.505,12.352
LSMA,46.943,8.286
LSMD,47.399,8.648
LGKZ,40.288,21.842
LGPZ,38.921,20.761
LSMM,46.743,8.11
ESOK,59.442,13.342
ESOE,59.229,15.046
LSMP,46.844,6.916
LGRX,38.151,21.426
ENML,62.744,7.262
ENOA,60.492,2.827
EDDC,51.128,13.7543
ENOV,62.18,6.078
EDDE,50.983,10.961
ENSG,61.158,7.141
EDDG,52.135,7.697
ENSH,68.245,14.669
EDDP,51.435,12.24
ESKN,58.786,16.918
ENEV,68.491,16.683
EDDR,49.213,7.108
EDDW,53.047,8.787
ENGC,61.033,2.033
ESUT,65.806,15.083
EDDF,50.045,8.598
EDDH,53.633,9.988
EDDK,50.865,7.157
ESNZ,63.199,14.489
EDDL,51.296,6.769
ENHF,70.681,23.677
EDDN,49.503,11.055
ESNU,63.789,20.285
ESNS,64.625,21.077
EDDV,52.466,9.68
ENKB,63.109,7.816
ESNQ,67.823,20.34
ESGP,57.781,11.869
NZSP,-89.98,180
ESMS,55.539,13.373
ESMX,56.927,14.73
ESNO,63.412,18.98
EGLF,51.28,-0.773
ESNN,62.532,17.436
ESNK,63.047,17.766
PTSA,5.352,162.956
EGNX,52.833,-1.333
PTYA,9.487,138.077
KADM,34.3007,-97.0089
EGNV,54.511,-1.418
EFHK,60.327,24.957
EGNT,55.037,-1.702
EGNJ,53.58,-0.341
EGGP,53.334,-2.85
ESTA,56.294,12.848
EYKA,54.962,24.069
ESMT,56.691,12.82
ESSA,59.664,17.92
ESMQ,56.685,16.284
ESMK,55.922,14.085
ESGT,58.314,12.347
ESGJ,57.752,14.069
ESGG,57.667,12.285
PFCB,60.0785,-147.9947
